~Version Information
 VERS.                 1.20:   CWLS log ASCII Standard -VERSION 1.20
 WRAP.                   NO:   One line per depth step
~Well Information Block
#MNEM.UNIT       Data Type    Information
#---------     -----------    ---------------------------
 STRT.M              3532.0000:
 STOP.M              3669.0000:
 STEP.M                 0.1000:
 NULL.               -999.2500:
 APD .    ABOVE PERMANENT DATUM:  53.0
 UWI .     API WELLHOLE NUMBER:  2016633897DD
 BHT .    BOTTOMHOLE TEMPERATURE:  N/A
 BLI .    BOTTOM LOGGED INTERVAL:  3669.0
 BS  .                BIT SIZE:  149.0
 CBD .    CASING BOTTOM DRILLER:  7"
 CBL .    CASING BOTTOM LOGGER:  3532.0
 COMP.            COMPANY NAME:  PNiG "PILA" Sp. Z O.O.
 COUN.                  COUNTY:  MONOKLINA PRZEDSUDECKA
 CS  .         CASING DIAMETER:  3532.0
 DATE.            LOGGING DATE:  14.06.2008
 DFD .    DRILLING FLUID DENSITY:  1.96
 DFL .     DRILLING FLUID LOSS:  2.4
 DFPH.       DRILLING FLUID PH:  9.2
 DFT .     DRILLING FLUID TYPE:  SOLNO-BARYTOWA
 DFV .    DRILLING FLUID VISCOSITY:  N/A
 DMF .       DRILLING MEASURED:  P.TER.
 EGL .    ELEVATION OF GROUND LEVEL:  53.0
 EKB .    ELEVATION OF KELLY BUSHING:  6.0
 ENG2.         ENGINEER 2 NAME:  M.GOLONKA
 ENGI.         ENGINEER 1 NAME:  P.DRAG
 EPD .    ELEVATATION OF PERMANENT DATUM:   
 FL1 .    FIELD LOCATION LINE 1:  m. SLONSK
 FL2 .    FIELD LOCATION LINE 2:  woj. LUBUSKIE
 FL3 .    FIELD LOCATION LINE 3:  woj. wielkopolskie
 FLD .              FIELD NAME:  SLONSK
 HDRT.             HEADER TYPE:  OPNHS
 LMF .       LOG MEASURED FROM:  P.TER.
 LUL .    LOGGING UNIT LOCATION:  TORUN
 MCSS.    MUD CAKE SAMPLE SOURCE:  POMIA
 MCST.    MUDCAKE SAMPLE TEMPERATURE:  66.0
 MFSS.    MUD FILTRATE SAMPLE SOURCE:  POMIA
 MFST.    MUD FILTRATE SAMPLE TEMPERATURE:  65.0
 MRT .    MAXIMUM RECORDED TEMPERATURE:  N/A
 MSS .    SOURCE OF MUD SAMPLE:  Z OBIEGU
 MST .    MUD SAMPLE TEMPERATURE:  68.0
 OS1 .    OTHER SERVICES LINE 1:  DSNII,SDLT
 OS2 .    OTHER SERVICES LINE 2:  GRTFA, FWST,
 OS3 .    OTHER SERVICES LINE 3:  WOT
 OS4 .    OTHER SERVICES LINE 4:   
 OS5 .    OTHER SERVICES LINE 5:   
 PDAT.         PERMANENT DATUM:  POZ. MORZA
 R1  .          REMARKS LINE 1:   POMIARY DOWIAZANO DO GLEBOKOSCI WIERTNICZEJ  BUTA RUR 7" .
 R10 .         REMARKS LINE 10:   
 R2  .          REMARKS LINE 2:   SCT: 12.06.2008  GODZ. 01:00  OBIEG 2X 120 MIN.
 R3  .          REMARKS LINE 3:   POMIARU TEMPERATURY NIE WYKONYWANO.
 RMB .    RESISTIVITY OF MUD - BHT:  N/A
 RMCS.    RESISTIVITY OF MUDCAKE SAMPLE:  0.188
 RMFS.    RESISTIVITY OF MUD FILTRATE SAMPLE:  0.052
 RMS .    RESISTIVITY OF MUD SAMPLE:  0.077
 RUN .            RUN NUMBER 1:  2
 PROV.                   STATE:  POLSKA
 TCS .    TIME CIRCULATION STOPPED:   
 TDD .          DRILLERS DEPTH:  3675.00
 TDL .           LOGGERS DEPTH:  -
 TLI .     TOP LOGGED INTERVAL:  3490.0
 TITLE1.    HEADER TITLE LINE 1:  PR.AKUST.,PR.ELEKTR.
 TITLE2.    HEADER TITLE LINE 2:  (3516)3532.0-3669.0m
 TITLE3.    HEADER TITLE LINE 3:  TVD:3030.97-? m
 TITLE4.    HEADER TITLE LINE 4:  skala 1:500
 WITN.          WITNESS 1 NAME:  A.KULIG
 WELL.               WELL NAME:  SLONSK-1K
 XTP .    MAX. REC TEMP. @ 1 (OPEN HOLE):  N/A
~Parameter Information Block
#MNEM.UNIT       Value        Description
#---------     -----------    ---------------------------
 LUN .                   16107:  LOGGING UNIT NUMBER
~Curve Information Block
#MNEM.UNIT                 API CODE     Curve Description
#---------               -----------    ---------------------------
 DEPT.M                 00 000 000 000:  
 BS  .MM                00 000 000 000:                                         
 CALM.MM                00 000 000 000:                                         
 DT  .US/F              00 000 000 000:  DELTA TIME COMPRESSIVE                 
 GR  .GAPI              00 000 000 000:  NATURAL GAMMA                          
 LLD .OHMM              00 000 000 000:                                         
 LLS .OHMM              00 000 000 000:                                         
 MSFL.OHMM              00 000 000 000:                                         
 TT1 .US                00 000 000 000:                                         
 TT2 .US                00 000 000 000:                                         
 TVD .M                 00 000 000 000:                                         
~A  DEPT        BS         CALM       DT         GR         LLD        LLS        MSFL       TT1        TT2        TVD    
# ...
 3657.3000   149.0000   152.9080    53.1813     7.5927 34228.4492 62312.3984   305.6600   671.1000   724.8000  3089.5046 
 3657.4000   149.0000   152.9080    53.1531     7.5927 29908.0508 60135.8789   290.4200   671.4000   724.9000  3089.5618 
 3657.5000   149.0000   152.9080    53.1594     7.5927 31416.7305 54360.4805   348.0600   671.3000   725.3000  3089.6189 
 3657.6000   149.0000   152.9080    53.2609     7.5927 29308.6094 114920.3281   288.2600   671.8000   725.3000  3089.6758 
 3657.7000   149.0000   152.9080    53.3984     7.5927 30244.7207 62766.1602   238.9800   672.0000   725.7000  3089.7329 
 3657.8000   149.0000   153.1620    53.4969     7.5927 30680.4297 134706.2188   259.9300   672.2000   726.2000  3089.7900 
 3657.9000   149.0000   153.1620    53.5938     7.5927 31733.6602 581693.2500   285.5900   672.7000   726.4000  3089.8469 
 3658.0000   149.0000   153.1620    53.6891     7.5927 32398.8301 581707.7500   392.0400   672.7000   726.6000  3089.9041 
 3658.1000  -999.2500   152.9080    53.7703     7.5927 30206.0000 293968.1250   522.2600   672.8000   726.7000  3089.9612 
 3658.2000  -999.2500   153.1620    53.8500     7.5927 31014.8809 96844.4375   428.4100   673.0000   726.9000  3090.0181 
 3658.3000  -999.2500   152.9080    53.9109     7.5927 31533.1602 87149.3906   411.6200   673.3000   726.9000  3090.0752 
 3658.4000  -999.2500   153.1620    53.9219     7.5927 31156.6992 326011.3750   737.3300   673.6000   727.2000  3090.1323 
 3658.5000  -999.2500   152.9080    53.8438     7.5927 30426.7598 80523.9766   660.9200   673.5000   727.5000  3090.1895 
 3658.6000  -999.2500   153.1620    53.7109     7.5927 32624.3105 55024.2695   460.4000   673.7000   727.7000  3090.2463 
 3658.7000  -999.2500   152.9080    53.6531     7.5927 35007.4688 91732.1172   703.5500   674.2000   727.7000  3090.3035 
 3658.8000  -999.2500   153.1620    53.7062     7.5927 34616.0508 66081.7031  1399.9301   674.7000   728.1000  3090.3606 
 3658.9000  -999.2500   153.1620    53.7844     7.5927 35581.8008 50924.9102  1032.2700   675.0000   728.4000  3090.4175 
 3659.0000  -999.2500   152.9080    53.8672     7.5927 36132.4219 134939.3750   901.3900   674.8000   729.0000  -999.2500 
 3659.1000  -999.2500   152.9080    53.9891     7.5927 39663.4102 100529.2812   909.0000   675.4000   729.1000  -999.2500 
 3659.2000  -999.2500   152.9080    54.1141     7.5927 40348.3086 60867.7383   754.6700   675.4000   729.1000  -999.2500 
 3659.3000  -999.2500   152.9080    54.1562     7.5927 37006.1211 95818.1406   771.2300   675.7000   729.1000  -999.2500 
 3659.4000  -999.2500   152.9080    54.1625     7.5927 33728.3594 72412.4766   687.2500   675.1000   729.2000  -999.2500 
 3659.5000  -999.2500   152.9080    54.2000     7.5927 33288.6094 125484.5312   666.4000   675.2000   729.5000  -999.2500 
 3659.6000  -999.2500   152.9080    54.2156     7.5927 33138.1992 146361.6875   604.2500   675.4000   729.6000  -999.2500 
 3659.7000  -999.2500   153.1620    54.2125     7.5927 33170.3516 501777.5625   599.9600   675.4000   729.6000  -999.2500 
 3659.8000  -999.2500   152.9080    54.2047     7.5927 27805.7695 276884.1250   897.5100   675.7000   729.9000  -999.2500 
 3659.9000  -999.2500   152.9080    54.1953     7.5927 25512.4805 172003.6250   627.1300   676.0000   729.7000  -999.2500 
 3660.0000  -999.2500   152.9080    54.2500     7.5927 28387.5996 169830.4688   589.3100   676.3000   730.1000  -999.2500 
 3660.1000  -999.2500   152.9080    54.3453     7.5927 26041.3691 165523.3125   743.4700   676.3000   730.4000  -999.2500 
 3660.2000  -999.2500   152.9080    54.3719     7.5927 25620.9199 205358.0312   934.9500   676.5000   730.8000  -999.2500 
 3660.3000  -999.2500   152.9080    54.3516     7.5927 26006.1797 219032.2188   380.9600   676.7000   730.8000  -999.2500 
 3660.4000  -999.2500   153.1620    54.3625     7.5927 24889.4102 115983.0234  1349.0000   676.9000   730.9000  -999.2500 
 3660.5000  -999.2500   153.1620    54.3922     7.5927 24032.0000 90354.4062  1337.0900   676.8000   730.8000  -999.2500 
 3660.6000  -999.2500   152.9080    54.3656     7.5927 23573.2109 44431.6406   636.1500   676.5000   730.9000  -999.2500 
 3660.7000  -999.2500   153.1620    54.1875     7.5927 19879.2109 29314.8496   374.2700   676.5000   731.2000  -999.2500 
 3660.8000  -999.2500   152.9080    53.9234     7.5927 21899.9902 28156.3008   514.8800   676.6000   730.7000  -999.2500 
 3660.9000  -999.2500   152.9080    53.7578     7.5927 23082.6895 28600.6602   779.3900   677.0000   731.0000  -999.2500 
 3661.0000  -999.2500   152.9080    53.7078     7.5927 24756.2695 27067.9805   511.8100   676.7000   731.1000  -999.2500 
 3661.1000  -999.2500   153.1620    53.7297     7.5927 24952.3906 38784.6602   662.4900   676.9000   731.2000  -999.2500 
 3661.2000  -999.2500   152.9080    53.8500     7.5927 25439.2207 35511.3594  1749.4800   677.0000   731.1000  -999.2500 
 3661.3000  -999.2500   152.9080    54.0109     7.5927 27582.4297 32311.0703   304.0600   677.3000   731.2000  -999.2500 
 3661.4000  -999.2500   153.1620    54.0938     7.5927 25190.1504 67183.7969   475.0000   676.7000   730.9000  -999.2500 
 3661.5000  -999.2500   152.9080    54.1125     7.5927 24230.3203 210911.9688   651.7300   676.3000   730.4000  -999.2500 
 3661.6000  -999.2500   151.6380    54.1609     7.5927 29229.7305 98014.4688   417.9500   676.2000   730.3000  -999.2500 
 3661.7000  -999.2500   151.3840    54.1828     7.5927 28866.6602 94273.6875   398.2000   675.7000   730.0000  -999.2500 
 3661.8000  -999.2500   151.3840    54.1719     7.5927 27294.3691 49437.2695   629.4300   675.7000   729.9000  -999.2500 
 3661.9000  -999.2500   151.3840    54.2391     7.5927 31990.8301 275188.6875   388.5700   675.6000   729.5000  -999.2500 
 3662.0000  -999.2500   151.3840    54.3937     7.5927 28798.0195 275127.5000   406.2400   675.3000   729.3000  -999.2500 
 3662.1000  -999.2500   151.3840    54.5484     7.5927 26182.3906 274818.8750   175.5000   675.3000   729.2000  -999.2500 
 3662.2000  -999.2500   151.3840    54.5812     7.5927 25166.8008 275503.0000   292.3400   675.8000   729.5000  -999.2500 
 3662.3000  -999.2500   151.3840    54.4781     7.5927 26263.2598 209985.3438   360.9800     4.0000   729.6000  -999.2500 
 3662.4000  -999.2500   151.3840    54.3469     7.5927 26120.2891 79413.2188   159.9000     4.0000     4.0000  -999.2500 
 3662.5000  -999.2500   151.3840    54.2516     7.5927 25396.8008 32049.4805   580.7100     4.0000     4.0000  -999.2500 
 3662.6000  -999.2500   151.3840    54.2125     7.5927 24689.0508 29752.5801   281.5100     4.0000     4.0000  -999.2500 
 3662.7000  -999.2500   151.3840    54.2219     7.5927 23627.6992 30469.2695  1211.6000     4.0000     4.0000  -999.2500 
 3662.8000  -999.2500   151.3840    54.1703     7.5927 27477.3809 48649.2305  2414.3701     4.0000     4.0000  -999.2500 
 3662.9000  -999.2500   151.3840    54.1297     7.5927 23887.9004 92367.1875   730.9300     4.0000     4.0000  -999.2500 
 3663.0000  -999.2500   151.3840    54.1453     7.5927 27523.4395 174151.3750   458.6900     4.0000     4.0000  -999.2500 
 3663.1000  -999.2500   150.6220    54.0344     7.5927 29453.2207 277879.2500   409.9700     4.0000     4.0000  -999.2500 
 3663.2000  -999.2500   149.8600    53.8578     7.5927 29247.8594 278652.0000   277.9100     4.0000     4.0000  -999.2500 
 3663.3000  -999.2500   149.6060    53.8031     7.5927 29242.8691 279515.0000   219.2600     4.0000     4.0000  -999.2500 
 3663.4000  -999.2500   149.0980    53.9250     7.5927 27363.6699 280034.0000   236.8400     4.0000     4.0000  -999.2500 
 3663.5000  -999.2500   148.5900    54.1375     7.5927 31649.2695 279522.0000   253.5100     4.0000     4.0000  -999.2500 
 3663.6000  -999.2500   148.5900    54.3078     7.5927 31296.4395 278724.5625   237.1000     4.0000     4.0000  -999.2500 
 3663.7000  -999.2500   148.5900    54.3125     7.5927 29757.8301 277951.0000   366.2600     4.0000     4.0000  -999.2500 
 3663.8000  -999.2500   148.5900    54.2000     7.5927 27858.3906 277842.8125   319.0900     4.0000     4.0000  -999.2500 
