~Version Information
 VERS.                 1.20:   CWLS log ASCII Standard -VERSION 1.20
 WRAP.                   NO:   One line per depth step
~Well Information Block
#MNEM.UNIT       Data Type    Information
#---------     -----------    ---------------------------
 STRT.M              3532.0000:
 STOP.M              3669.0000:
 STEP.M                 0.1000:
 NULL.               -999.2500:
 APD .    ABOVE PERMANENT DATUM:  53.0
 UWI .     API WELLHOLE NUMBER:  2016633897DD
 BHT .    BOTTOMHOLE TEMPERATURE:  N/A
 BLI .    BOTTOM LOGGED INTERVAL:  3669.0
 BS  .                BIT SIZE:  149.0
 CBD .    CASING BOTTOM DRILLER:  7"
 CBL .    CASING BOTTOM LOGGER:  3532.0
 COMP.            COMPANY NAME:  PNiG "PILA" Sp. Z O.O.
 COUN.                  COUNTY:  MONOKLINA PRZEDSUDECKA
 CS  .         CASING DIAMETER:  3532.0
 DATE.            LOGGING DATE:  14.06.2008
 DFD .    DRILLING FLUID DENSITY:  1.96
 DFL .     DRILLING FLUID LOSS:  2.4
 DFPH.       DRILLING FLUID PH:  9.2
 DFT .     DRILLING FLUID TYPE:  SOLNO-BARYTOWA
 DFV .    DRILLING FLUID VISCOSITY:  N/A
 DMF .       DRILLING MEASURED:  P.TER.
 EGL .    ELEVATION OF GROUND LEVEL:  53.0
 EKB .    ELEVATION OF KELLY BUSHING:  6.0
 ENG2.         ENGINEER 2 NAME:  M.GOLONKA
 ENGI.         ENGINEER 1 NAME:  P.DRAG
 EPD .    ELEVATATION OF PERMANENT DATUM:   
 FL1 .    FIELD LOCATION LINE 1:  m. SLONSK
 FL2 .    FIELD LOCATION LINE 2:  woj. LUBUSKIE
 FL3 .    FIELD LOCATION LINE 3:  woj. wielkopolskie
 FLD .              FIELD NAME:  SLONSK
 HDRT.             HEADER TYPE:  OPNHS
 LMF .       LOG MEASURED FROM:  P.TER.
 LUL .    LOGGING UNIT LOCATION:  TORUN
 MCSS.    MUD CAKE SAMPLE SOURCE:  POMIA
 MCST.    MUDCAKE SAMPLE TEMPERATURE:  66.0
 MFSS.    MUD FILTRATE SAMPLE SOURCE:  POMIA
 MFST.    MUD FILTRATE SAMPLE TEMPERATURE:  65.0
 MRT .    MAXIMUM RECORDED TEMPERATURE:  N/A
 MSS .    SOURCE OF MUD SAMPLE:  Z OBIEGU
 MST .    MUD SAMPLE TEMPERATURE:  68.0
 OS1 .    OTHER SERVICES LINE 1:  DSNII,SDLT
 OS2 .    OTHER SERVICES LINE 2:  GRTFA, FWST,
 OS3 .    OTHER SERVICES LINE 3:  WOT
 OS4 .    OTHER SERVICES LINE 4:   
 OS5 .    OTHER SERVICES LINE 5:   
 PDAT.         PERMANENT DATUM:  POZ. MORZA
 R1  .          REMARKS LINE 1:   POMIARY DOWIAZANO DO GLEBOKOSCI WIERTNICZEJ  BUTA RUR 7" .
 R10 .         REMARKS LINE 10:   
 R2  .          REMARKS LINE 2:   SCT: 12.06.2008  GODZ. 01:00  OBIEG 2X 120 MIN.
 R3  .          REMARKS LINE 3:   POMIARU TEMPERATURY NIE WYKONYWANO.
 RMB .    RESISTIVITY OF MUD - BHT:  N/A
 RMCS.    RESISTIVITY OF MUDCAKE SAMPLE:  0.188
 RMFS.    RESISTIVITY OF MUD FILTRATE SAMPLE:  0.052
 RMS .    RESISTIVITY OF MUD SAMPLE:  0.077
 RUN .            RUN NUMBER 1:  2
 PROV.                   STATE:  POLSKA
 TCS .    TIME CIRCULATION STOPPED:   
 TDD .          DRILLERS DEPTH:  3675.00
 TDL .           LOGGERS DEPTH:  -
 TLI .     TOP LOGGED INTERVAL:  3490.0
 TITLE1.    HEADER TITLE LINE 1:  PR.AKUST.,PR.ELEKTR.
 TITLE2.    HEADER TITLE LINE 2:  (3516)3532.0-3669.0m
 TITLE3.    HEADER TITLE LINE 3:  TVD:3030.97-? m
 TITLE4.    HEADER TITLE LINE 4:  skala 1:500
 WITN.          WITNESS 1 NAME:  A.KULIG
 WELL.               WELL NAME:  SLONSK-1K
 XTP .    MAX. REC TEMP. @ 1 (OPEN HOLE):  N/A
~Parameter Information Block
#MNEM.UNIT       Value        Description
#---------     -----------    ---------------------------
 LUN .                   16107:  LOGGING UNIT NUMBER
~Curve Information Block
#MNEM.UNIT                 API CODE     Curve Description
#---------               -----------    ---------------------------
 DEPT.M                 00 000 000 000:  
 BS  .MM                00 000 000 000:                                         
 CALM.MM                00 000 000 000:                                         
 DT  .US/F              00 000 000 000:  DELTA TIME COMPRESSIVE                 
 GR  .GAPI              00 000 000 000:  NATURAL GAMMA                          
 LLD .OHMM              00 000 000 000:                                         
 LLS .OHMM              00 000 000 000:                                         
 MSFL.OHMM              00 000 000 000:                                         
 TT1 .US                00 000 000 000:                                         
 TT2 .US                00 000 000 000:                                         
 TVD .M                 00 000 000 000:                                         
~A  DEPT        BS         CALM       DT         GR         LLD        LLS        MSFL       TT1        TT2        TVD    
# ...
 3551.8000   149.0000   149.8600    62.6297    18.7372     5.2600     1.7900     0.4000   735.6000   788.6000  3039.7778 
 3551.9000   149.0000   149.8600    60.1750    18.4892     4.7700     1.5300     0.5400   736.0000   788.8000  3039.8223 
 3552.0000   149.0000   149.8600    59.4734    17.6471     4.8000     1.4400     0.6400   734.8000   793.8000  3039.8665 
 3552.1000   149.0000   149.8600    60.5812    16.5821     5.0200     1.4400     0.6700   736.6000   797.0000  3039.9106 
 3552.2000   149.0000   149.8600    62.0703    16.1394     5.1000     1.4500     6.7800   743.7000   800.2000  3039.9551 
 3552.3000   149.0000   149.8600    62.4094    16.0944     5.2000     1.4800     0.9600   745.1000   801.8000  3039.9993 
 3552.4000   149.0000   149.6060    61.1828    16.6969     5.5600     1.5200     0.5000   743.6000   806.3000  3040.0437 
 3552.5000   149.0000   149.8600    58.8203    17.5689     6.5900     1.7600     0.4000   737.8000   807.3000  3040.0879 
 3552.6000   149.0000   149.8600    56.7891    18.1514     7.1500     1.9200     0.3500   734.7000   802.2000  3040.1321 
 3552.7000   149.0000   149.8600    56.4578    19.2914     7.1800     1.9400     0.3700   733.4000   798.0000  3040.1765 
 3552.8000   149.0000   149.8600    57.4719    20.1384     7.2500     1.9500     2.4000   731.2000   797.1000  3040.2207 
 3552.9000   149.0000   149.6060    59.0859    20.4380     7.2800     1.9700     9.9200   730.0000   796.0000  3040.2651 
 3553.0000   149.0000   149.8600    60.4031    20.9556     6.8900     1.8900     8.1400   729.5000   794.8000  3040.3093 
 3553.1000   149.0000   149.8600    60.6391    20.5512     6.7800     1.8700     1.3500   729.3000   792.2000  3040.3538 
 3553.2000   149.0000   149.8600    60.2391    19.9587     6.7900     1.8700     0.6400   730.3000   791.2000  3040.3982 
 3553.3000   149.0000   149.8600    60.4188    19.5215     6.9700     1.8900     0.6900   731.3000   792.0000  3040.4424 
 3553.4000   149.0000   149.8600    61.8391    18.6200     7.3300     1.9800     2.2000   731.0000   793.6000  3040.4868 
 3553.5000   149.0000   149.8600    62.6328    18.1079     7.6200     2.0800     5.2300   731.5000   794.7000  3040.5312 
 3553.6000   149.0000   149.8600    61.3609    18.2298     8.2000     2.1600    64.6100   732.1000   797.2000  3040.5757 
 3553.7000   149.0000   149.8600    59.8844    18.9533     7.5600     2.0300    12.4700   732.5000   798.5000  3040.6201 
 3553.8000   149.0000   149.8600    59.9500    20.5222     7.3000     1.9900     0.8700   733.4000   798.7000  3040.6643 
 3553.9000   149.0000   149.8600    61.3172    22.0877     7.1500     1.9800     3.8100   736.4000   796.9000  3040.7087 
 3554.0000   149.0000   149.8600    62.7438    23.1540     6.7000     1.8900     1.8300   737.1000   794.4000  3040.7532 
 3554.1000   149.0000   149.8600    63.1703    23.4901     6.6900     1.8100     0.9000   737.1000   795.5000  3040.7979 
 3554.2000   149.0000   149.8600    62.7984    22.8561     8.4800     2.1100     1.0200   734.6000   800.0000  3040.8425 
 3554.3000   149.0000   149.8600    62.6469    21.7028    10.6200     2.6400     1.5500   734.3000   799.7000  3040.8870 
 3554.4000   149.0000   149.8600    63.0531    20.4263    10.2900     2.6200     3.5900   739.1000   799.7000  3040.9316 
 3554.5000   149.0000   149.8600    63.3438    19.1898     9.4800     2.4200    12.4900   741.7000   797.1000  3040.9763 
 3554.6000   149.0000   149.8600    63.3031    18.3078     8.8600     2.2900    13.3600   745.0000   802.5000  3041.0210 
 3554.7000   149.0000   149.8600    63.3391    17.8102     8.2900     2.1800    41.0300   743.2000   805.3000  3041.0657 
 3554.8000   149.0000   149.8600    63.3484    17.3692     7.4800     2.0000     4.4800   742.3000   805.7000  3041.1101 
 3554.9000   149.0000   149.8600    63.0766    17.1612     7.1200     1.7400     1.2800   742.8000   805.5000  3041.1548 
 3555.0000   149.0000   149.8600    62.7016    16.8267     7.5100     1.5600     0.5800   745.0000   805.1000  3041.1995 
 3555.1000   149.0000   149.8600    62.5469    16.7085     8.4600     1.5600     0.6900   747.9000   806.1000  3041.2444 
 3555.2000   149.0000   149.8600    62.6828    16.8550     9.1500     1.6500     0.8000   749.2000   812.0000  3041.2891 
 3555.3000   149.0000   149.8600    63.1953    16.9565     9.1800     1.6700     0.9600   750.6000   814.6000  3041.3340 
 3555.4000   149.0000   149.8600    64.0797    17.5040     8.9300     1.6900     1.2900   754.3000   816.9000  3041.3787 
 3555.5000   149.0000   149.6060    64.7812    17.8235     8.4000     1.7000     1.2500   756.6000   817.8000  3041.4236 
 3555.6000   149.0000   149.8600    64.7609    18.0798     7.1900     1.5400     1.2100   758.9000   820.5000  3041.4685 
 3555.7000   149.0000   149.6060    63.9922    18.8920     6.3100     1.3600     1.0000   760.8000   823.8000  3041.5132 
 3555.8000   149.0000   149.8600    62.7766    19.6658     5.9400     1.2800     0.7100   765.5000   831.0000  3041.5581 
 3555.9000   149.0000   149.8600    62.0062    20.4330     5.7100     1.2300     0.5500   768.5000   832.9000  3041.6028 
 3556.0000   149.0000   149.8600    62.4281    20.8923     5.4100     1.1900     2.7900   772.3000   835.8000  3041.6477 
 3556.1000   149.0000   149.8600    63.3844    20.5245     5.1500     1.1400     6.3000   775.6000   837.7000  3041.6926 
 3556.2000   149.0000   149.8600    63.7453    19.7973     5.3500     1.1500     0.6100   777.4000   841.9000  3041.7378 
 3556.3000   149.0000   149.8600    63.4016    19.1898     6.3200     1.3700     0.5900   779.3000   841.3000  3041.7827 
 3556.4000   149.0000   149.8600    63.1516    18.9918     6.7000     1.5500     0.6800   779.6000   839.9000  3041.8276 
 3556.5000   149.0000   149.8600    62.9281    19.1865     6.2200     1.5400     2.5300   779.1000   838.3000  3041.8728 
 3556.6000   149.0000   149.8600    62.3891    19.2830     5.5900     1.4600     1.9000   778.3000   836.3000  3041.9177 
 3556.7000   149.0000   149.8600    62.2781    19.2348     4.8400     1.3100     0.8400   776.8000   833.0000  3041.9626 
 3556.8000   149.0000   149.8600    62.6813    19.3979     4.3500     1.2600     0.9900   771.3000   832.0000  3042.0076 
 3556.9000   149.0000   149.8600    63.1250    19.4495     3.7300     1.1100     0.8700   768.5000   829.9000  3042.0527 
 3557.0000   149.0000   149.8600    63.8141    19.9471     3.3300     0.9800     0.7500   766.0000   827.5000  3042.0977 
 3557.1000   149.0000   149.8600    64.9203    21.0138     3.1100     0.9200     0.5800   763.9000   825.6000  3042.1428 
 3557.2000   149.0000   149.8600    66.1609    21.4565     2.9500     0.8700     0.4500   762.4000   825.4000  3042.1880 
 3557.3000   149.0000   149.8600    66.9953    22.1255     2.8400     0.8300     0.3200   763.4000   827.9000  3042.2329 
 3557.4000   149.0000   149.8600    67.4203    22.6880     2.7400     0.7900     0.2800   763.8000   828.2000  3042.2781 
 3557.5000   149.0000   149.8600    67.9797    22.5116     2.7100     0.7700     0.2700   765.2000   826.8000  3042.3232 
 3557.6000   149.0000   149.8600    68.6609    22.6664     2.7000     0.7700     0.2600   766.4000   823.2000  3042.3684 
 3557.7000   149.0000   149.8600    69.1719    22.8078     2.7200     0.7700     0.2500   765.6000   823.3000  3042.4136 
 3557.8000   149.0000   149.8600    69.2125    22.6198     2.7600     0.8000     0.3200   764.0000   822.7000  3042.4585 
 3557.9000   149.0000   149.8600    68.6516    22.2470     2.8400     0.8200     0.4700   762.5000   821.7000  3042.5037 
 3558.0000   149.0000   149.8600    67.6172    21.5197     3.0100     0.8600     0.4700   760.8000   817.7000  3042.5488 
 3558.1000   149.0000   149.6060    65.9906    20.1151     3.2700     0.9600     0.3200   758.7000   816.2000  3042.5940 
 3558.2000   149.0000   149.8600    63.9813    18.9519     3.7100     1.1100     0.3900   755.0000   814.9000  3042.6392 
 3558.3000   149.0000   149.8600    62.0312    18.5824     4.3700     1.3300     0.7800   753.6000   811.7000  3042.6843 
