~Version Information
 VERS.                 1.20:   CWLS log ASCII Standard -VERSION 1.20
 WRAP.                   NO:   One line per depth step
~Well Information Block
#MNEM.UNIT       Data Type    Information
#---------     -----------    ---------------------------
 STRT.M              3532.0000:
 STOP.M              3669.0000:
 STEP.M                 0.1000:
 NULL.               -999.2500:
 APD .    ABOVE PERMANENT DATUM:  53.0
 UWI .     API WELLHOLE NUMBER:  2016633897DD
 BHT .    BOTTOMHOLE TEMPERATURE:  N/A
 BLI .    BOTTOM LOGGED INTERVAL:  3669.0
 BS  .                BIT SIZE:  149.0
 CBD .    CASING BOTTOM DRILLER:  7"
 CBL .    CASING BOTTOM LOGGER:  3532.0
 COMP.            COMPANY NAME:  PNiG "PILA" Sp. Z O.O.
 COUN.                  COUNTY:  MONOKLINA PRZEDSUDECKA
 CS  .         CASING DIAMETER:  3532.0
 DATE.            LOGGING DATE:  14.06.2008
 DFD .    DRILLING FLUID DENSITY:  1.96
 DFL .     DRILLING FLUID LOSS:  2.4
 DFPH.       DRILLING FLUID PH:  9.2
 DFT .     DRILLING FLUID TYPE:  SOLNO-BARYTOWA
 DFV .    DRILLING FLUID VISCOSITY:  N/A
 DMF .       DRILLING MEASURED:  P.TER.
 EGL .    ELEVATION OF GROUND LEVEL:  53.0
 EKB .    ELEVATION OF KELLY BUSHING:  6.0
 ENG2.         ENGINEER 2 NAME:  M.GOLONKA
 ENGI.         ENGINEER 1 NAME:  P.DRAG
 EPD .    ELEVATATION OF PERMANENT DATUM:   
 FL1 .    FIELD LOCATION LINE 1:  m. SLONSK
 FL2 .    FIELD LOCATION LINE 2:  woj. LUBUSKIE
 FL3 .    FIELD LOCATION LINE 3:  woj. wielkopolskie
 FLD .              FIELD NAME:  SLONSK
 HDRT.             HEADER TYPE:  OPNHS
 LMF .       LOG MEASURED FROM:  P.TER.
 LUL .    LOGGING UNIT LOCATION:  TORUN
 MCSS.    MUD CAKE SAMPLE SOURCE:  POMIA
 MCST.    MUDCAKE SAMPLE TEMPERATURE:  66.0
 MFSS.    MUD FILTRATE SAMPLE SOURCE:  POMIA
 MFST.    MUD FILTRATE SAMPLE TEMPERATURE:  65.0
 MRT .    MAXIMUM RECORDED TEMPERATURE:  N/A
 MSS .    SOURCE OF MUD SAMPLE:  Z OBIEGU
 MST .    MUD SAMPLE TEMPERATURE:  68.0
 OS1 .    OTHER SERVICES LINE 1:  DSNII,SDLT
 OS2 .    OTHER SERVICES LINE 2:  GRTFA, FWST,
 OS3 .    OTHER SERVICES LINE 3:  WOT
 OS4 .    OTHER SERVICES LINE 4:   
 OS5 .    OTHER SERVICES LINE 5:   
 PDAT.         PERMANENT DATUM:  POZ. MORZA
 R1  .          REMARKS LINE 1:   POMIARY DOWIAZANO DO GLEBOKOSCI WIERTNICZEJ  BUTA RUR 7" .
 R10 .         REMARKS LINE 10:   
 R2  .          REMARKS LINE 2:   SCT: 12.06.2008  GODZ. 01:00  OBIEG 2X 120 MIN.
 R3  .          REMARKS LINE 3:   POMIARU TEMPERATURY NIE WYKONYWANO.
 RMB .    RESISTIVITY OF MUD - BHT:  N/A
 RMCS.    RESISTIVITY OF MUDCAKE SAMPLE:  0.188
 RMFS.    RESISTIVITY OF MUD FILTRATE SAMPLE:  0.052
 RMS .    RESISTIVITY OF MUD SAMPLE:  0.077
 RUN .            RUN NUMBER 1:  2
 PROV.                   STATE:  POLSKA
 TCS .    TIME CIRCULATION STOPPED:   
 TDD .          DRILLERS DEPTH:  3675.00
 TDL .           LOGGERS DEPTH:  -
 TLI .     TOP LOGGED INTERVAL:  3490.0
 TITLE1.    HEADER TITLE LINE 1:  PR.AKUST.,PR.ELEKTR.
 TITLE2.    HEADER TITLE LINE 2:  (3516)3532.0-3669.0m
 TITLE3.    HEADER TITLE LINE 3:  TVD:3030.97-? m
 TITLE4.    HEADER TITLE LINE 4:  skala 1:500
 WITN.          WITNESS 1 NAME:  A.KULIG
 WELL.               WELL NAME:  SLONSK-1K
 XTP .    MAX. REC TEMP. @ 1 (OPEN HOLE):  N/A
~Parameter Information Block
#MNEM.UNIT       Value        Description
#---------     -----------    ---------------------------
 LUN .                   16107:  LOGGING UNIT NUMBER
~Curve Information Block
#MNEM.UNIT                 API CODE     Curve Description
#---------               -----------    ---------------------------
 DEPT.M                 00 000 000 000:  
 BS  .MM                00 000 000 000:                                         
 CALM.MM                00 000 000 000:                                         
 DT  .US/F              00 000 000 000:  DELTA TIME COMPRESSIVE                 
 GR  .GAPI              00 000 000 000:  NATURAL GAMMA                          
 LLD .OHMM              00 000 000 000:                                         
 LLS .OHMM              00 000 000 000:                                         
 MSFL.OHMM              00 000 000 000:                                         
 TT1 .US                00 000 000 000:                                         
 TT2 .US                00 000 000 000:                                         
 TVD .M                 00 000 000 000:                                         
~A  DEPT        BS         CALM       DT         GR         LLD        LLS        MSFL       TT1        TT2        TVD    
# ...
 3584.8000   149.0000   149.8600    50.0391    23.1911    39.4400    36.1800    26.9700   670.5000   724.9000  3054.5244 
 3584.9000   149.0000   149.8600    50.2953    22.4384    33.7700    32.3400    10.7200   668.3000   724.2000  3054.5684 
 3585.0000   149.0000   149.8600    50.6922    21.3159    26.1300    26.8300    33.1700   663.0000   721.9000  3054.6123 
 3585.1000   149.0000   149.8600    51.3641    20.1759    19.7000    21.1700    28.6700   660.2000   719.8000  3054.6562 
 3585.2000   149.0000   149.8600    52.1984    18.9677    17.7900    19.4700    10.7500   658.8000   717.5000  3054.7000 
 3585.3000   149.0000   149.8600    53.0469    17.8776    15.5300    17.8400     7.5800   658.0000   714.7000  3054.7439 
 3585.4000   149.0000   149.8600    53.7906    17.2918    12.4800    14.4800    18.4100   658.0000   712.0000  3054.7878 
 3585.5000   149.0000   149.8600    54.3328    16.7992    11.8600    13.6400    89.9700   657.9000   711.6000  3054.8318 
 3585.6000   149.0000   149.8600    54.5625    16.8385    11.9200    13.8600  2887.3401   658.6000   711.3000  3054.8755 
 3585.7000   149.0000   149.8600    54.3984    17.3249    12.0400    13.9700    10.6800   659.6000   711.9000  3054.9194 
 3585.8000   149.0000   149.6060    54.1172    17.8604    12.4500    14.5300     9.0600   660.7000   713.5000  3054.9634 
 3585.9000   149.0000   149.8600    54.0750    18.8943    12.5400    14.7600     4.1600   663.0000   715.5000  3055.0071 
 3586.0000   149.0000   149.8600    54.0656    19.8914    13.8800    16.1500     3.7300   663.7000   717.6000  3055.0510 
 3586.1000   149.0000   149.8600    53.7234    20.3603    17.1400    19.8000    17.4900   665.9000   719.7000  3055.0947 
 3586.2000   149.0000   149.6060    53.2156    21.2501    18.5700    21.8100    52.5500   667.8000   722.2000  3055.1384 
 3586.3000   149.0000   149.8600    52.8344    22.1110    19.1600    22.3800    17.2000   670.5000   727.2000  3055.1821 
 3586.4000   149.0000   149.8600    52.4813    22.6212    21.7700    24.7700    11.0400   674.4000   730.4000  3055.2258 
 3586.5000   149.0000   149.6060    52.1406    23.2224    24.8000    28.1500    20.1900   676.8000   733.0000  3055.2698 
 3586.6000   149.0000   149.8600    51.9953    23.2329    25.8500    29.2100    14.6100   678.2000   734.7000  3055.3135 
 3586.7000   149.0000   149.8600    52.0141    22.3994    26.6000    29.9100    14.6600   679.7000   737.2000  3055.3572 
 3586.8000   149.0000   149.8600    52.0766    22.1617    25.9800    29.1900    11.8500   682.0000   740.6000  3055.4009 
 3586.9000   149.0000   149.8600    52.2094    21.7369    26.4700    28.9000    10.4200   685.1000   744.0000  3055.4446 
 3587.0000   149.0000   149.8600    52.4797    21.1939    28.6700    30.6000     6.4000   687.5000   745.7000  3055.4883 
 3587.1000   149.0000   149.8600    52.7953    21.1744    29.5600    30.7600    15.7600   689.8000   747.0000  3055.5320 
 3587.2000   149.0000   149.8600    52.9828    20.2208    29.3300    29.6800    15.0100   690.8000   749.6000  3055.5757 
 3587.3000   149.0000   149.8600    52.9594    19.5169    25.4500    25.3700    12.9900   692.3000   750.7000  3055.6194 
 3587.4000   149.0000   149.8600    52.7750    19.0575    21.1600    20.5200     7.3700   696.4000   751.2000  3055.6631 
 3587.5000   149.0000   149.8600    52.6969    17.9442    18.4200    17.4900     6.9700   696.9000   751.6000  3055.7068 
 3587.6000   149.0000   149.8600    52.9422    17.4840    15.0500    14.5400     8.1100   697.6000   751.6000  3055.7505 
 3587.7000   149.0000   149.8600    53.5172    17.3043    10.8500    10.6900    28.5700   698.0000   749.7000  3055.7942 
 3587.8000   149.0000   149.6060    54.4781    16.9582     8.4600     8.3900     7.4000   698.0000   749.3000  3055.8379 
 3587.9000   149.0000   149.8600    55.6328    17.1396     7.1100     7.1300     3.7400   697.5000   749.0000  3055.8816 
 3588.0000   149.0000   149.8600    56.7922    17.2228     6.0600     6.1100     2.3800   697.3000   748.4000  3055.9253 
 3588.1000   149.0000   149.8600    57.9969    16.9332     5.3900     5.4500     3.7700   697.3000   748.3000  3055.9690 
 3588.2000   149.0000   149.6060    59.0859    16.9099     5.0000     5.0500    16.9800   697.8000   749.6000  3056.0127 
 3588.3000   149.0000   149.6060    60.0312    17.2494     4.8700     4.8700     3.8800   698.0000   750.4000  3056.0564 
 3588.4000   149.0000   149.8600    60.9375    17.9450     4.9700     4.8900     1.8600   698.5000   751.4000  3056.1001 
 3588.5000   149.0000   149.8600    61.8672    18.9086     5.0700     4.9300     1.6700   699.1000   754.0000  3056.1438 
 3588.6000   149.0000   149.6060    62.7547    19.7540     5.1900     4.9700     1.4600   700.4000   755.4000  3056.1875 
 3588.7000   149.0000   149.8600    63.2422    20.1384     5.4100     5.1100     1.2300   702.0000   757.3000  3056.2312 
 3588.8000   149.0000   149.6060    63.1375    19.6891     5.7300     5.2800     1.2300   703.1000   759.3000  3056.2749 
 3588.9000   149.0000   149.8600    62.5812    18.8387     5.9500     5.3600     1.7200   707.2000   764.3000  3056.3186 
 3589.0000   149.0000   149.8600    61.8844    17.6604     6.2700     5.5000     1.7900   708.5000   767.5000  3056.3623 
 3589.1000   149.0000   149.8600    61.1203    16.9914     6.7800     5.8100     1.2700   710.4000   770.2000  3056.4060 
 3589.2000   149.0000   149.6060    60.2094    17.5556     7.2800     6.1500     2.6000   714.7000   772.3000  3056.4497 
 3589.3000   149.0000   149.8600    59.0844    18.6090     8.0700     6.8400     2.5800   716.1000   773.6000  3056.4934 
 3589.4000   149.0000   149.6060    57.5578    20.6793     8.9000     7.5200     2.4900   716.4000   774.1000  3056.5371 
 3589.5000   149.0000   149.8600    55.8688    22.3876    10.5400     8.8400     4.0400   715.9000   773.4000  3056.5808 
 3589.6000   149.0000   149.8600    54.4750    22.5490    12.9000    10.6600    14.2900   714.1000   770.3000  3056.6243 
 3589.7000   149.0000   149.8600    53.4297    22.0015    16.2600    13.1300    26.5100   711.7000   769.4000  3056.6680 
 3589.8000   149.0000   149.6060    52.5469    20.1775    19.7800    15.8600     7.7600   708.7000   769.2000  3056.7117 
 3589.9000   149.0000   149.8600    51.8375    18.0357    20.1800    16.5600    17.2300   706.4000   767.8000  3056.7554 
 3590.0000   149.0000   149.8600    51.5703    17.0655    18.4800    15.7200     7.1400   702.5000   768.9000  3056.7991 
 3590.1000   149.0000   149.8600    51.9281    16.8175    13.0400    11.6700    69.4000   703.3000   766.2000  3056.8428 
 3590.2000   149.0000   149.8600    52.7797    17.1853     7.9500     7.3700    10.2800   704.3000   766.3000  3056.8865 
 3590.3000   149.0000   149.8600    53.8016    17.7819     5.3000     4.9900     5.9300   704.2000   766.9000  3056.9302 
 3590.4000   149.0000   149.8600    54.7109    17.9782     3.7300     3.4700    23.1600   705.8000   767.3000  3056.9739 
 3590.5000   149.0000   149.6060    55.4625    17.7900     2.9200     2.6200     9.1500   706.1000   767.3000  3057.0178 
 3590.6000   149.0000   149.8600    56.2016    17.9683     2.4700     2.1900     4.3200   706.9000   765.8000  3057.0615 
 3590.7000   149.0000   149.6060    57.2250    18.2547     2.1500     1.8200     2.2500   706.4000   765.8000  3057.1052 
 3590.8000   149.0000   149.8600    58.9062    18.6879     2.0700     1.7200     0.8600   707.0000   766.4000  3057.1489 
 3590.9000   149.0000   149.6060    61.0781    19.4707     2.1000     1.7400     0.7300   709.0000   767.1000  3057.1926 
 3591.0000   149.0000   149.6060    62.8812    19.5444     2.2000     1.8600     0.6400   710.5000   767.0000  3057.2363 
 3591.1000   149.0000   149.8600    63.4797    19.8469     2.3900     2.0600     0.7000   711.6000   766.4000  3057.2803 
 3591.2000   149.0000   149.8600    62.6188    19.7141     2.6600     2.3100     0.7700   713.3000   765.8000  3057.3240 
 3591.3000   149.0000   149.8600    60.5922    19.0621     3.0500     2.6300     0.6200   713.8000   766.2000  3057.3679 
