~Version Information
 VERS.                 1.20:   CWLS log ASCII Standard -VERSION 1.20
 WRAP.                   NO:   One line per depth step
~Well Information Block
#MNEM.UNIT       Data Type    Information
#---------     -----------    ---------------------------
 STRT.M              3532.0000:
 STOP.M              3669.0000:
 STEP.M                 0.1000:
 NULL.               -999.2500:
 APD .    ABOVE PERMANENT DATUM:  53.0
 UWI .     API WELLHOLE NUMBER:  2016633897DD
 BHT .    BOTTOMHOLE TEMPERATURE:  N/A
 BLI .    BOTTOM LOGGED INTERVAL:  3669.0
 BS  .                BIT SIZE:  149.0
 CBD .    CASING BOTTOM DRILLER:  7"
 CBL .    CASING BOTTOM LOGGER:  3532.0
 COMP.            COMPANY NAME:  PNiG "PILA" Sp. Z O.O.
 COUN.                  COUNTY:  MONOKLINA PRZEDSUDECKA
 CS  .         CASING DIAMETER:  3532.0
 DATE.            LOGGING DATE:  14.06.2008
 DFD .    DRILLING FLUID DENSITY:  1.96
 DFL .     DRILLING FLUID LOSS:  2.4
 DFPH.       DRILLING FLUID PH:  9.2
 DFT .     DRILLING FLUID TYPE:  SOLNO-BARYTOWA
 DFV .    DRILLING FLUID VISCOSITY:  N/A
 DMF .       DRILLING MEASURED:  P.TER.
 EGL .    ELEVATION OF GROUND LEVEL:  53.0
 EKB .    ELEVATION OF KELLY BUSHING:  6.0
 ENG2.         ENGINEER 2 NAME:  M.GOLONKA
 ENGI.         ENGINEER 1 NAME:  P.DRAG
 EPD .    ELEVATATION OF PERMANENT DATUM:   
 FL1 .    FIELD LOCATION LINE 1:  m. SLONSK
 FL2 .    FIELD LOCATION LINE 2:  woj. LUBUSKIE
 FL3 .    FIELD LOCATION LINE 3:  woj. wielkopolskie
 FLD .              FIELD NAME:  SLONSK
 HDRT.             HEADER TYPE:  OPNHS
 LMF .       LOG MEASURED FROM:  P.TER.
 LUL .    LOGGING UNIT LOCATION:  TORUN
 MCSS.    MUD CAKE SAMPLE SOURCE:  POMIA
 MCST.    MUDCAKE SAMPLE TEMPERATURE:  66.0
 MFSS.    MUD FILTRATE SAMPLE SOURCE:  POMIA
 MFST.    MUD FILTRATE SAMPLE TEMPERATURE:  65.0
 MRT .    MAXIMUM RECORDED TEMPERATURE:  N/A
 MSS .    SOURCE OF MUD SAMPLE:  Z OBIEGU
 MST .    MUD SAMPLE TEMPERATURE:  68.0
 OS1 .    OTHER SERVICES LINE 1:  DSNII,SDLT
 OS2 .    OTHER SERVICES LINE 2:  GRTFA, FWST,
 OS3 .    OTHER SERVICES LINE 3:  WOT
 OS4 .    OTHER SERVICES LINE 4:   
 OS5 .    OTHER SERVICES LINE 5:   
 PDAT.         PERMANENT DATUM:  POZ. MORZA
 R1  .          REMARKS LINE 1:   POMIARY DOWIAZANO DO GLEBOKOSCI WIERTNICZEJ  BUTA RUR 7" .
 R10 .         REMARKS LINE 10:   
 R2  .          REMARKS LINE 2:   SCT: 12.06.2008  GODZ. 01:00  OBIEG 2X 120 MIN.
 R3  .          REMARKS LINE 3:   POMIARU TEMPERATURY NIE WYKONYWANO.
 RMB .    RESISTIVITY OF MUD - BHT:  N/A
 RMCS.    RESISTIVITY OF MUDCAKE SAMPLE:  0.188
 RMFS.    RESISTIVITY OF MUD FILTRATE SAMPLE:  0.052
 RMS .    RESISTIVITY OF MUD SAMPLE:  0.077
 RUN .            RUN NUMBER 1:  2
 PROV.                   STATE:  POLSKA
 TCS .    TIME CIRCULATION STOPPED:   
 TDD .          DRILLERS DEPTH:  3675.00
 TDL .           LOGGERS DEPTH:  -
 TLI .     TOP LOGGED INTERVAL:  3490.0
 TITLE1.    HEADER TITLE LINE 1:  PR.AKUST.,PR.ELEKTR.
 TITLE2.    HEADER TITLE LINE 2:  (3516)3532.0-3669.0m
 TITLE3.    HEADER TITLE LINE 3:  TVD:3030.97-? m
 TITLE4.    HEADER TITLE LINE 4:  skala 1:500
 WITN.          WITNESS 1 NAME:  A.KULIG
 WELL.               WELL NAME:  SLONSK-1K
 XTP .    MAX. REC TEMP. @ 1 (OPEN HOLE):  N/A
~Parameter Information Block
#MNEM.UNIT       Value        Description
#---------     -----------    ---------------------------
 LUN .                   16107:  LOGGING UNIT NUMBER
~Curve Information Block
#MNEM.UNIT                 API CODE     Curve Description
#---------               -----------    ---------------------------
 DEPT.M                 00 000 000 000:  
 BS  .MM                00 000 000 000:                                         
 CALM.MM                00 000 000 000:                                         
 DT  .US/F              00 000 000 000:  DELTA TIME COMPRESSIVE                 
 GR  .GAPI              00 000 000 000:  NATURAL GAMMA                          
 LLD .OHMM              00 000 000 000:                                         
 LLS .OHMM              00 000 000 000:                                         
 MSFL.OHMM              00 000 000 000:                                         
 TT1 .US                00 000 000 000:                                         
 TT2 .US                00 000 000 000:                                         
 TVD .M                 00 000 000 000:                                         
~A  DEPT        BS         CALM       DT         GR         LLD        LLS        MSFL       TT1        TT2        TVD    
# ...
 3538.6000   149.0000   149.8600    54.8187    27.5591     7.5400     2.0700     4.5300   760.8000   825.8000  3033.9150 
 3538.7000   149.0000   149.8600    56.6328    28.4627     5.1400     1.4700     5.8500   764.5000   828.7000  3033.9600 
 3538.8000   149.0000   149.8600    59.0766    29.0918     4.0700     1.2100     2.6100   768.9000   835.6000  3034.0046 
 3538.9000   149.0000   149.8600    61.2234    28.9420     3.4400     1.0300     0.8800   770.3000   838.5000  3034.0496 
 3539.0000   149.0000   149.8600    63.4641    27.9219     3.1400     0.9400     0.7200   771.7000   841.0000  3034.0942 
 3539.1000   149.0000   149.8600    65.6547    27.3078     3.0000     0.9000     2.3000   773.5000   843.5000  3034.1392 
 3539.2000   149.0000   149.8600    66.9328    26.7361     2.8900     0.8300     0.4300   780.5000   844.7000  3034.1838 
 3539.3000   149.0000   149.8600    67.1547    27.3353     3.0900     0.8500     0.4100   782.5000   848.5000  3034.2288 
 3539.4000   149.0000   149.8600    67.1422    28.8239     3.1700     0.9200     0.6900   784.5000   851.7000  3034.2734 
 3539.5000   149.0000   149.8600    67.6000    30.2792     2.9100     0.8900     0.6400   789.1000   857.9000  3034.3184 
 3539.6000   149.0000   149.8600    68.2609    32.2313     2.9800     0.9100     0.6000   792.7000   859.4000  3034.3630 
 3539.7000   149.0000   149.8600    68.5469    32.9503     3.0500     0.9400     0.6400   797.5000   859.9000  3034.4080 
 3539.8000   149.0000   149.8600    68.6687    33.0235     2.9300     0.9300     0.4800   808.1000   867.8000  3034.4526 
 3539.9000   149.0000   149.8600    68.8734    33.2731     2.8500     0.9200     0.5700   814.4000   872.5000  3034.4976 
 3540.0000   149.0000   149.8600    68.9234    33.6401     2.7200     0.9000     0.5700   818.7000   874.5000  3034.5422 
 3540.1000   149.0000   149.6060    68.7641    34.8682     2.5800     0.8600     0.4300   820.0000   875.7000  3034.5869 
 3540.2000   149.0000   149.8600    68.6188    36.2537     2.4300     0.8500     0.4100   820.0000   876.1000  3034.6316 
 3540.3000   149.0000   149.8600    68.9344    37.4095     2.2300     0.8200     0.4100   819.6000   875.1000  3034.6765 
 3540.4000   149.0000   149.8600    69.6875    38.0685     2.0600     0.7600     0.3800   811.7000   871.5000  3034.7212 
 3540.5000   149.0000   149.8600    70.3859    38.0435     1.9500     0.7400     0.5300   806.6000   867.9000  3034.7659 
 3540.6000   149.0000   149.8600    70.9156    38.2832     1.8900     0.7100     0.4900   803.3000   862.7000  3034.8105 
 3540.7000   149.0000   149.8600    71.2531    37.8738     1.9900     0.7000     0.3700   799.4000   856.7000  3034.8552 
 3540.8000   149.0000   149.8600    71.5422    37.7839     2.1000     0.7000     0.2900   792.9000   852.7000  3034.9001 
 3540.9000   149.0000   149.8600    71.7078    37.9021     2.0800     0.6800     0.3400   789.6000   848.8000  3034.9448 
 3541.0000   149.0000   149.8600    71.4703    37.8388     2.0100     0.6500     0.5300   781.6000   840.3000  3034.9895 
 3541.1000   149.0000   149.8600    71.2766    38.1950     2.0600     0.6500     0.5000   777.3000   836.0000  3035.0342 
 3541.2000   149.0000   149.8600    71.3547    38.1267     2.1600     0.6800     0.2800   773.3000   831.6000  3035.0789 
 3541.3000   149.0000   149.8600    71.3906    38.0369     2.2900     0.7200     0.4600   763.9000   827.0000  3035.1233 
 3541.4000   149.0000   149.8600    70.8359    37.2780     2.4200     0.7400     0.3700   761.3000   822.3000  3035.1680 
 3541.5000   149.0000   149.8600    69.3688    36.4376     2.6900     0.7700     0.4100   759.7000   818.2000  3035.2126 
 3541.6000   149.0000   149.8600    67.9344    35.3658     3.1200     0.8400     0.3200   755.8000   811.0000  3035.2573 
 3541.7000   149.0000   149.8600    66.8922    33.7133     3.8200     1.0100     0.4600   746.2000   807.6000  3035.3020 
 3541.8000   149.0000   149.8600    64.8969    31.9659     4.2600     1.0800     0.5800   740.7000   803.4000  3035.3464 
 3541.9000   149.0000   149.8600    61.7234    29.7675     4.8400     1.1600     0.5200   737.4000   798.9000  3035.3911 
 3542.0000   149.0000   149.8600    59.0250    28.0351     6.2000     1.3200     2.0500   729.0000   794.7000  3035.4358 
 3542.1000   149.0000   149.8600    57.5016    27.3860     8.7400     1.6000     0.6600   724.8000   787.7000  3035.4802 
 3542.2000   149.0000   149.8600    56.3688    28.1732    10.6200     1.8700     1.1000   720.7000   784.1000  3035.5249 
 3542.3000   149.0000   149.8600    55.2656    29.7825    12.0800     2.1200    14.7400   714.1000   780.5000  3035.5693 
 3542.4000   149.0000   149.8600    54.5297    31.6164    13.4000     2.4000     1.7000   711.2000   773.5000  3035.6140 
 3542.5000   149.0000   149.8600    54.3875    33.1208    15.3100     2.8300     2.0400   708.1000   770.7000  3035.6584 
 3542.6000   149.0000   149.8600    54.4359    34.3124    18.3000     3.5500     2.0800   700.7000   765.3000  3035.7029 
 3542.7000   149.0000   149.8600    54.1969    35.9466    20.4100     4.2100     3.9700   698.8000   762.0000  3035.7476 
 3542.8000   149.0000   149.8600    53.6859    36.9518    21.8000     4.6900     8.3800   697.5000   759.7000  3035.7920 
 3542.9000   149.0000   149.8600    53.0516    37.7806    23.0900     5.1900     4.7800   695.2000   755.5000  3035.8367 
 3543.0000   149.0000   149.8600    52.7453    37.1299    24.2100     5.6800     4.6900   694.1000   752.6000  3035.8811 
 3543.1000   149.0000   149.8600    53.2781    34.5437    25.8400     6.3900     4.3100   690.3000   748.4000  3035.9255 
 3543.2000   149.0000   149.8600    54.2141    31.8777    28.3100     7.2800     3.7100   688.6000   746.4000  3035.9700 
 3543.3000   149.0000   149.8600    54.4688    28.8372    29.5500     8.1300    11.3900   687.7000   744.4000  3036.0144 
 3543.4000   149.0000   149.6060    53.6609    26.4541    30.7400     8.9200     9.7500   685.3000   741.7000  3036.0588 
 3543.5000   149.0000   149.8600    52.6188    25.2550    31.7800     9.7900    13.2200   684.2000   740.0000  3036.1035 
 3543.6000   149.0000   149.6060    52.1656    24.8689    34.8900    11.2800     3.6000   682.2000   737.7000  3036.1479 
 3543.7000   149.0000   149.8600    52.3375    24.7840    35.8200    12.3600    11.1300   681.0000   737.4000  3036.1924 
 3543.8000   149.0000   149.8600    52.8328    25.0936    29.6900    10.6800    21.9600   681.0000   738.0000  3036.2368 
 3543.9000   149.0000   149.8600    53.5094    25.7226    26.7500     9.7600    85.4000   681.8000   738.9000  3036.2812 
 3544.0000   149.0000   149.8600    54.3672    25.8541    22.2500     8.3800     7.9300   682.4000   739.9000  3036.3257 
 3544.1000   149.0000   149.8600    55.0719    26.2086    17.9900     7.0400     5.2700   683.8000   740.2000  3036.3701 
 3544.2000   149.0000   149.8600    55.5797    26.1853    15.2300     6.1100     5.7700   684.7000   740.1000  3036.4143 
 3544.3000   149.0000   149.8600    56.1641    25.2142    13.2100     5.2900     1.8900   684.8000   740.0000  3036.4587 
 3544.4000   149.0000   149.8600    56.7844    24.3089    12.1500     4.8300     4.9700   685.8000   739.1000  3036.5032 
 3544.5000   149.0000   149.8600    57.3969    23.2438    11.5300     4.6200     3.2700   685.5000   738.6000  3036.5476 
 3544.6000   149.0000   149.8600    57.9875    22.5715    11.5000     4.5900     2.0600   683.7000   737.9000  3036.5918 
 3544.7000   149.0000   149.8600    58.1047    22.9160    11.6900     4.7500     2.6700   683.4000   737.7000  3036.6362 
 3544.8000   149.0000   149.8600    57.3125    22.8311    11.6800     4.8200     3.5100   683.9000   737.5000  3036.6807 
 3544.9000   149.0000   149.8600    56.0406    22.5033    12.7200     5.2300     5.1800   685.3000   739.8000  3036.7249 
 3545.0000   149.0000   149.8600    54.9656    21.6678    13.8800     5.7900     2.8400   686.2000   741.9000  3036.7693 
 3545.1000   149.0000   149.8600    54.3844    20.1218    14.9900     6.4000     2.2300   688.8000   743.3000  3036.8135 
