~Version Information
 VERS.                 1.20:   CWLS log ASCII Standard -VERSION 1.20
 WRAP.                   NO:   One line per depth step
~Well Information Block
#MNEM.UNIT       Data Type    Information
#---------     -----------    ---------------------------
 STRT.M              3532.0000:
 STOP.M              3669.0000:
 STEP.M                 0.1000:
 NULL.               -999.2500:
 APD .    ABOVE PERMANENT DATUM:  53.0
 UWI .     API WELLHOLE NUMBER:  2016633897DD
 BHT .    BOTTOMHOLE TEMPERATURE:  N/A
 BLI .    BOTTOM LOGGED INTERVAL:  3669.0
 BS  .                BIT SIZE:  149.0
 CBD .    CASING BOTTOM DRILLER:  7"
 CBL .    CASING BOTTOM LOGGER:  3532.0
 COMP.            COMPANY NAME:  PNiG "PILA" Sp. Z O.O.
 COUN.                  COUNTY:  MONOKLINA PRZEDSUDECKA
 CS  .         CASING DIAMETER:  3532.0
 DATE.            LOGGING DATE:  14.06.2008
 DFD .    DRILLING FLUID DENSITY:  1.96
 DFL .     DRILLING FLUID LOSS:  2.4
 DFPH.       DRILLING FLUID PH:  9.2
 DFT .     DRILLING FLUID TYPE:  SOLNO-BARYTOWA
 DFV .    DRILLING FLUID VISCOSITY:  N/A
 DMF .       DRILLING MEASURED:  P.TER.
 EGL .    ELEVATION OF GROUND LEVEL:  53.0
 EKB .    ELEVATION OF KELLY BUSHING:  6.0
 ENG2.         ENGINEER 2 NAME:  M.GOLONKA
 ENGI.         ENGINEER 1 NAME:  P.DRAG
 EPD .    ELEVATATION OF PERMANENT DATUM:   
 FL1 .    FIELD LOCATION LINE 1:  m. SLONSK
 FL2 .    FIELD LOCATION LINE 2:  woj. LUBUSKIE
 FL3 .    FIELD LOCATION LINE 3:  woj. wielkopolskie
 FLD .              FIELD NAME:  SLONSK
 HDRT.             HEADER TYPE:  OPNHS
 LMF .       LOG MEASURED FROM:  P.TER.
 LUL .    LOGGING UNIT LOCATION:  TORUN
 MCSS.    MUD CAKE SAMPLE SOURCE:  POMIA
 MCST.    MUDCAKE SAMPLE TEMPERATURE:  66.0
 MFSS.    MUD FILTRATE SAMPLE SOURCE:  POMIA
 MFST.    MUD FILTRATE SAMPLE TEMPERATURE:  65.0
 MRT .    MAXIMUM RECORDED TEMPERATURE:  N/A
 MSS .    SOURCE OF MUD SAMPLE:  Z OBIEGU
 MST .    MUD SAMPLE TEMPERATURE:  68.0
 OS1 .    OTHER SERVICES LINE 1:  DSNII,SDLT
 OS2 .    OTHER SERVICES LINE 2:  GRTFA, FWST,
 OS3 .    OTHER SERVICES LINE 3:  WOT
 OS4 .    OTHER SERVICES LINE 4:   
 OS5 .    OTHER SERVICES LINE 5:   
 PDAT.         PERMANENT DATUM:  POZ. MORZA
 R1  .          REMARKS LINE 1:   POMIARY DOWIAZANO DO GLEBOKOSCI WIERTNICZEJ  BUTA RUR 7" .
 R10 .         REMARKS LINE 10:   
 R2  .          REMARKS LINE 2:   SCT: 12.06.2008  GODZ. 01:00  OBIEG 2X 120 MIN.
 R3  .          REMARKS LINE 3:   POMIARU TEMPERATURY NIE WYKONYWANO.
 RMB .    RESISTIVITY OF MUD - BHT:  N/A
 RMCS.    RESISTIVITY OF MUDCAKE SAMPLE:  0.188
 RMFS.    RESISTIVITY OF MUD FILTRATE SAMPLE:  0.052
 RMS .    RESISTIVITY OF MUD SAMPLE:  0.077
 RUN .            RUN NUMBER 1:  2
 PROV.                   STATE:  POLSKA
 TCS .    TIME CIRCULATION STOPPED:   
 TDD .          DRILLERS DEPTH:  3675.00
 TDL .           LOGGERS DEPTH:  -
 TLI .     TOP LOGGED INTERVAL:  3490.0
 TITLE1.    HEADER TITLE LINE 1:  PR.AKUST.,PR.ELEKTR.
 TITLE2.    HEADER TITLE LINE 2:  (3516)3532.0-3669.0m
 TITLE3.    HEADER TITLE LINE 3:  TVD:3030.97-? m
 TITLE4.    HEADER TITLE LINE 4:  skala 1:500
 WITN.          WITNESS 1 NAME:  A.KULIG
 WELL.               WELL NAME:  SLONSK-1K
 XTP .    MAX. REC TEMP. @ 1 (OPEN HOLE):  N/A
~Parameter Information Block
#MNEM.UNIT       Value        Description
#---------     -----------    ---------------------------
 LUN .                   16107:  LOGGING UNIT NUMBER
~Curve Information Block
#MNEM.UNIT                 API CODE     Curve Description
#---------               -----------    ---------------------------
 DEPT.M                 00 000 000 000:  
 BS  .MM                00 000 000 000:                                         
 CALM.MM                00 000 000 000:                                         
 DT  .US/F              00 000 000 000:  DELTA TIME COMPRESSIVE                 
 GR  .GAPI              00 000 000 000:  NATURAL GAMMA                          
 LLD .OHMM              00 000 000 000:                                         
 LLS .OHMM              00 000 000 000:                                         
 MSFL.OHMM              00 000 000 000:                                         
 TT1 .US                00 000 000 000:                                         
 TT2 .US                00 000 000 000:                                         
 TVD .M                 00 000 000 000:                                         
~A  DEPT        BS         CALM       DT         GR         LLD        LLS        MSFL       TT1        TT2        TVD    
# ...
 3611.2000   149.0000   149.8600    60.4453    18.2339     3.4100     2.4200     3.5400   735.0000   789.1000  3066.2827 
 3611.3000   149.0000   149.6060    61.0359    17.3352     4.2000     3.0700     2.3800   736.7000   789.5000  3066.3284 
 3611.4000   149.0000   149.6060    61.8828    16.6859     4.4800     3.4700     0.9300   737.6000   790.7000  3066.3740 
 3611.5000   149.0000   149.8600    62.5500    15.8351     4.0900     3.2800     1.1100   736.3000   794.0000  3066.4197 
 3611.6000   149.0000   149.8600    62.8297    14.9278     3.4600     2.8100     1.2300   735.1000   798.5000  3066.4651 
 3611.7000   149.0000   149.8600    62.8781    14.2954     3.0000     2.4100     0.9900   734.7000   797.3000  3066.5107 
 3611.8000   149.0000   151.1300    63.1000    13.7049     2.5500     2.1000     0.7600   734.7000   799.2000  3066.5564 
 3611.9000   149.0000   151.3840    63.7969    13.6944     2.1500     1.7700     0.5500   734.3000   799.7000  3066.6021 
 3612.0000   149.0000   151.3840    65.0125    13.9883     1.9700     1.6200     0.5600   733.5000   798.5000  3066.6477 
 3612.1000   149.0000   151.3840    66.0625    14.7438     2.0200     1.6300     0.5000   734.4000   794.3000  3066.6934 
 3612.2000   149.0000   151.3840    66.4531    15.6946     2.2000     1.7600     0.6900   731.7000   792.5000  3066.7390 
 3612.3000   149.0000   151.3840    66.5453    16.2708     2.5100     2.0100     0.7300   730.4000   789.5000  3066.7849 
 3612.4000   149.0000   151.3840    66.7219    16.8533     2.9500     2.3100     2.3800   730.4000   788.2000  3066.8306 
 3612.5000   149.0000   151.3840    66.7094    16.8833     3.7000     2.8600     1.0600   731.0000   787.0000  3066.8762 
 3612.6000   149.0000   151.3840    64.9844    16.7390     4.7200     3.7000     1.8400   732.1000   787.5000  3066.9219 
 3612.7000   149.0000   151.3840    60.4437    16.9589     5.0500     4.0100    13.4100   733.1000   793.0000  3066.9675 
 3612.8000   149.0000   151.3840    55.2828    16.9242     4.6600     3.7300    12.8400   735.1000   794.6000  3067.0134 
 3612.9000   149.0000   151.3840    52.5187    17.3521     4.0900     3.2100     3.4200   734.1000   793.6000  3067.0591 
 3613.0000   149.0000   151.3840    52.3500    18.2933     3.6800     2.8700     7.3400   734.2000   793.7000  3067.1047 
 3613.1000   149.0000   151.3840    53.4859    18.4828     3.3300     2.6400     1.6800   734.0000   791.9000  3067.1506 
 3613.2000   149.0000   151.3840    55.1297    18.3715     2.8700     2.3100     1.2900   732.4000   792.1000  3067.1963 
 3613.3000   149.0000   151.3840    56.9156    17.7211     2.6700     2.0900     2.0100   732.4000   791.6000  3067.2422 
 3613.4000   149.0000   151.3840    58.7250    16.4969     2.6800     2.0900     4.7200   730.8000   790.5000  3067.2881 
 3613.5000   149.0000   151.3840    60.4437    15.9081     2.7500     2.1700    10.8100   727.6000   791.0000  3067.3340 
 3613.6000   149.0000   151.3840    61.9000    15.9466     2.8200     2.2700     2.0300   725.1000   790.0000  3067.3796 
 3613.7000   149.0000   151.3840    63.1937    16.7566     2.7900     2.3000     1.4200   724.3000   788.7000  3067.4255 
 3613.8000   149.0000   151.3840    64.0687    18.2415     2.6100     2.1900     0.9000   724.9000   787.9000  3067.4714 
 3613.9000   149.0000   151.6380    63.7547    19.5189     2.4700     2.0400     1.1600   726.1000   785.1000  3067.5171 
 3614.0000   149.0000   151.8920    62.2750    20.5136     2.5800     2.1100     0.6200   726.7000   781.7000  3067.5630 
 3614.1000   149.0000   151.8920    60.6656    20.7126     2.5900     2.1200     0.9800   726.8000   780.8000  3067.6089 
 3614.2000   149.0000   151.8920    59.3391    20.3572     2.3900     2.0000     1.6100   727.4000   779.9000  3067.6548 
 3614.3000   149.0000   151.8920    58.1937    20.0181     2.0800     1.7300     3.5400   728.0000   778.7000  3067.7007 
 3614.4000   149.0000   151.8920    57.6750    20.0578     1.8800     1.5600     1.5700   727.0000   778.3000  3067.7466 
 3614.5000   149.0000   151.8920    58.0969    21.0188     1.7700     1.4200     3.0200   725.6000   778.2000  3067.7925 
 3614.6000   149.0000   151.8920    59.0281    22.2486     1.6900     1.3700     1.2700   721.6000   778.8000  3067.8381 
 3614.7000   149.0000   151.8920    59.6078    23.5950     1.5400     1.2500     1.2900   720.6000   778.8000  3067.8840 
 3614.8000   149.0000   151.8920    59.4609    24.7100     1.5100     1.1700     0.7600   719.7000   778.0000  3067.9299 
 3614.9000   149.0000   151.8920    59.0828    24.9527     1.6000     1.2400     0.4400   719.9000   774.7000  3067.9758 
 3615.0000   149.0000   151.8920    58.9047    24.5426     1.6700     1.3200     0.8400   714.6000   774.6000  3068.0217 
 3615.1000   149.0000   151.8920    58.7719    24.1206     1.6300     1.3300     2.9400   711.6000   773.9000  3068.0676 
 3615.2000   149.0000   151.8920    58.4859    23.7005     1.6000     1.3200     1.6800   709.4000   770.5000  3068.1135 
 3615.3000   149.0000   151.8920    58.5406    23.1713     1.6400     1.3600     0.8700   708.1000   767.4000  3068.1594 
 3615.4000   149.0000   151.8920    59.5469    23.0579     1.6400     1.3600     0.9100   706.4000   764.1000  3068.2053 
 3615.5000   149.0000   151.8920    61.0094    23.0111     1.6400     1.3500     1.3500   704.4000   762.9000  3068.2512 
 3615.6000   149.0000   151.8920    61.8891    22.7764     1.7200     1.3700     0.5100   704.4000   761.9000  3068.2971 
 3615.7000   149.0000   151.8920    61.5328    23.1204     1.9800     1.5500     0.6700   704.5000   760.0000  3068.3430 
 3615.8000   149.0000   151.8920    60.0047    23.3867     2.2900     1.8300     1.2100   703.9000   758.9000  3068.3889 
 3615.9000   149.0000   151.8920    58.0062    23.4340     2.5700     2.0800     0.9000   703.0000   758.3000  3068.4348 
 3616.0000   149.0000   151.8920    56.1172    23.6520     2.9300     2.3900     1.6700   700.8000   758.1000  3068.4807 
 3616.1000   149.0000   151.8920    54.5531    23.8860     3.5600     2.9000     2.7500   699.1000   757.4000  3068.5266 
 3616.2000   149.0000   151.8920    53.3828    24.6116     4.3300     3.5300    11.4900   697.1000   754.4000  3068.5728 
 3616.3000   149.0000   151.8920    52.6609    24.8491     5.1200     4.1700     2.0500   695.4000   754.3000  3068.6187 
 3616.4000   149.0000   151.8920    52.5172    24.1311     5.5100     4.5000     6.5100   695.2000   753.0000  3068.6646 
 3616.5000   149.0000   151.8920    52.9000    22.3975     5.9700     4.8200    24.4200   694.4000   752.1000  3068.7107 
 3616.6000   149.0000   151.8920    53.4156    19.6949     6.3000     5.1400    10.6900   694.3000   753.0000  3068.7566 
 3616.7000   149.0000   151.8920    53.7375    17.6763     6.1400     5.0900     7.8900   694.6000   753.4000  3068.8025 
 3616.8000   149.0000   151.8920    53.9906    16.8347     5.7500     4.8700     2.2300   694.3000   753.9000  3068.8484 
 3616.9000   149.0000   151.8920    54.3672    17.1625     5.2900     4.5100     2.5200   692.8000   753.7000  3068.8945 
 3617.0000   149.0000   151.8920    54.7641    18.2416     5.0400     4.3000     4.8200   691.7000   753.3000  3068.9404 
 3617.1000   149.0000   151.8920    55.1391    18.9546     4.6600     4.0300     7.4800   691.4000   752.6000  3068.9866 
 3617.2000   149.0000   151.8920    55.5344    18.9746     4.3600     3.8000     2.8400   691.5000   751.7000  3069.0327 
 3617.3000   149.0000   151.8920    55.8516    18.5542     4.3300     3.7800     3.0200   693.1000   752.0000  3069.0789 
 3617.4000   149.0000   151.8920    55.8734    17.9391     4.3800     3.8800     1.8100   694.4000   752.9000  3069.1250 
 3617.5000   149.0000   151.8920    55.4813    17.3445     4.5000     4.0000     2.2500   695.6000   753.9000  3069.1714 
 3617.6000   149.0000   151.8920    54.9250    16.9489     4.7400     4.2300     3.1300   699.2000   756.4000  3069.2175 
 3617.7000   149.0000   151.8920    54.4938    16.3821     5.0400     4.4400     2.4600   701.3000   757.9000  3069.2637 
