~Version Information
 VERS.                 1.20:   CWLS log ASCII Standard -VERSION 1.20
 WRAP.                   NO:   One line per depth step
~Well Information Block
#MNEM.UNIT       Data Type    Information
#---------     -----------    ---------------------------
 STRT.M              3532.0000:
 STOP.M              3669.0000:
 STEP.M                 0.1000:
 NULL.               -999.2500:
 APD .    ABOVE PERMANENT DATUM:  53.0
 UWI .     API WELLHOLE NUMBER:  2016633897DD
 BHT .    BOTTOMHOLE TEMPERATURE:  N/A
 BLI .    BOTTOM LOGGED INTERVAL:  3669.0
 BS  .                BIT SIZE:  149.0
 CBD .    CASING BOTTOM DRILLER:  7"
 CBL .    CASING BOTTOM LOGGER:  3532.0
 COMP.            COMPANY NAME:  PNiG "PILA" Sp. Z O.O.
 COUN.                  COUNTY:  MONOKLINA PRZEDSUDECKA
 CS  .         CASING DIAMETER:  3532.0
 DATE.            LOGGING DATE:  14.06.2008
 DFD .    DRILLING FLUID DENSITY:  1.96
 DFL .     DRILLING FLUID LOSS:  2.4
 DFPH.       DRILLING FLUID PH:  9.2
 DFT .     DRILLING FLUID TYPE:  SOLNO-BARYTOWA
 DFV .    DRILLING FLUID VISCOSITY:  N/A
 DMF .       DRILLING MEASURED:  P.TER.
 EGL .    ELEVATION OF GROUND LEVEL:  53.0
 EKB .    ELEVATION OF KELLY BUSHING:  6.0
 ENG2.         ENGINEER 2 NAME:  M.GOLONKA
 ENGI.         ENGINEER 1 NAME:  P.DRAG
 EPD .    ELEVATATION OF PERMANENT DATUM:   
 FL1 .    FIELD LOCATION LINE 1:  m. SLONSK
 FL2 .    FIELD LOCATION LINE 2:  woj. LUBUSKIE
 FL3 .    FIELD LOCATION LINE 3:  woj. wielkopolskie
 FLD .              FIELD NAME:  SLONSK
 HDRT.             HEADER TYPE:  OPNHS
 LMF .       LOG MEASURED FROM:  P.TER.
 LUL .    LOGGING UNIT LOCATION:  TORUN
 MCSS.    MUD CAKE SAMPLE SOURCE:  POMIA
 MCST.    MUDCAKE SAMPLE TEMPERATURE:  66.0
 MFSS.    MUD FILTRATE SAMPLE SOURCE:  POMIA
 MFST.    MUD FILTRATE SAMPLE TEMPERATURE:  65.0
 MRT .    MAXIMUM RECORDED TEMPERATURE:  N/A
 MSS .    SOURCE OF MUD SAMPLE:  Z OBIEGU
 MST .    MUD SAMPLE TEMPERATURE:  68.0
 OS1 .    OTHER SERVICES LINE 1:  DSNII,SDLT
 OS2 .    OTHER SERVICES LINE 2:  GRTFA, FWST,
 OS3 .    OTHER SERVICES LINE 3:  WOT
 OS4 .    OTHER SERVICES LINE 4:   
 OS5 .    OTHER SERVICES LINE 5:   
 PDAT.         PERMANENT DATUM:  POZ. MORZA
 R1  .          REMARKS LINE 1:   POMIARY DOWIAZANO DO GLEBOKOSCI WIERTNICZEJ  BUTA RUR 7" .
 R10 .         REMARKS LINE 10:   
 R2  .          REMARKS LINE 2:   SCT: 12.06.2008  GODZ. 01:00  OBIEG 2X 120 MIN.
 R3  .          REMARKS LINE 3:   POMIARU TEMPERATURY NIE WYKONYWANO.
 RMB .    RESISTIVITY OF MUD - BHT:  N/A
 RMCS.    RESISTIVITY OF MUDCAKE SAMPLE:  0.188
 RMFS.    RESISTIVITY OF MUD FILTRATE SAMPLE:  0.052
 RMS .    RESISTIVITY OF MUD SAMPLE:  0.077
 RUN .            RUN NUMBER 1:  2
 PROV.                   STATE:  POLSKA
 TCS .    TIME CIRCULATION STOPPED:   
 TDD .          DRILLERS DEPTH:  3675.00
 TDL .           LOGGERS DEPTH:  -
 TLI .     TOP LOGGED INTERVAL:  3490.0
 TITLE1.    HEADER TITLE LINE 1:  PR.AKUST.,PR.ELEKTR.
 TITLE2.    HEADER TITLE LINE 2:  (3516)3532.0-3669.0m
 TITLE3.    HEADER TITLE LINE 3:  TVD:3030.97-? m
 TITLE4.    HEADER TITLE LINE 4:  skala 1:500
 WITN.          WITNESS 1 NAME:  A.KULIG
 WELL.               WELL NAME:  SLONSK-1K
 XTP .    MAX. REC TEMP. @ 1 (OPEN HOLE):  N/A
~Parameter Information Block
#MNEM.UNIT       Value        Description
#---------     -----------    ---------------------------
 LUN .                   16107:  LOGGING UNIT NUMBER
~Curve Information Block
#MNEM.UNIT                 API CODE     Curve Description
#---------               -----------    ---------------------------
 DEPT.M                 00 000 000 000:  
 BS  .MM                00 000 000 000:                                         
 CALM.MM                00 000 000 000:                                         
 DT  .US/F              00 000 000 000:  DELTA TIME COMPRESSIVE                 
 GR  .GAPI              00 000 000 000:  NATURAL GAMMA                          
 LLD .OHMM              00 000 000 000:                                         
 LLS .OHMM              00 000 000 000:                                         
 MSFL.OHMM              00 000 000 000:                                         
 TT1 .US                00 000 000 000:                                         
 TT2 .US                00 000 000 000:                                         
 TVD .M                 00 000 000 000:                                         
~A  DEPT        BS         CALM       DT         GR         LLD        LLS        MSFL       TT1        TT2        TVD    
# ...
 3558.4000   149.0000   149.8600    60.3172    18.3744     5.1600     1.5800     1.0700   750.0000   808.2000  3042.7295 
 3558.5000   149.0000   149.8600    59.0062    18.6124     6.0600     1.8700     1.2800   745.1000   804.7000  3042.7747 
 3558.6000   149.0000   149.8600    58.1969    18.6748     6.9500     2.1800     1.3500   738.0000   802.2000  3042.8196 
 3558.7000   149.0000   149.8600    57.6141    18.2388     7.7300     2.4300     1.3700   736.1000   801.6000  3042.8647 
 3558.8000   149.0000   149.8600    57.3359    18.3153     8.1400     2.5800     1.5200   734.7000   797.2000  3042.9099 
 3558.9000   149.0000   149.8600    57.7828    19.0492     8.0900     2.5800     2.0900   731.9000   794.0000  3042.9551 
 3559.0000   149.0000   149.8600    58.9500    20.4788     7.3200     2.3900     1.9400   728.8000   791.2000  3043.0002 
 3559.1000   149.0000   149.8600    60.7953    22.7221     6.3400     2.0900     1.5800   723.4000   787.6000  3043.0454 
 3559.2000   149.0000   149.8600    62.6531    25.4580     5.4200     1.8400     1.6300   722.5000   787.1000  3043.0906 
 3559.3000   149.0000   149.8600    63.5047    27.9976     4.4100     1.5400     0.9100   719.4000   785.1000  3043.1355 
 3559.4000   149.0000   149.8600    62.8578    30.1885     3.6900     1.3400     0.7400   720.0000   781.6000  3043.1807 
 3559.5000   149.0000   149.6060    61.2781    31.6663     3.3600     1.2500     0.3900   717.0000   774.8000  3043.2258 
 3559.6000   149.0000   149.8600    60.3203    31.4600     3.5300     1.3500     0.4800   714.1000   772.4000  3043.2710 
 3559.7000   149.0000   149.8600    59.7687    30.2801     3.9300     1.5500     0.4600   710.8000   771.9000  3043.3162 
 3559.8000   149.0000   149.8600    58.1641    28.7873     4.6000     1.8100     3.3500   709.5000   772.7000  3043.3611 
 3559.9000   149.0000   149.8600    56.3234    27.0565     5.8100     2.3000     9.2000   711.6000   767.8000  3043.4062 
 3560.0000   149.0000   149.8600    55.4609    25.9432     7.7700     3.0700     5.4300   710.7000   768.3000  3043.4514 
 3560.1000   149.0000   149.6060    54.9203    25.2642    11.1800     4.4600     8.6600   710.5000   770.1000  3043.4966 
 3560.2000   149.0000   149.8600    54.1703    24.1175    15.0300     6.4000    23.8700   710.8000   770.0000  3043.5415 
 3560.3000   149.0000   149.8600    53.8016    22.8561    13.7000     6.2600     8.1600   711.1000   769.3000  3043.5867 
 3560.4000   149.0000   149.8600    54.6047    21.5280    11.8600     5.5300     1.9400   711.6000   765.2000  3043.6318 
 3560.5000   149.0000   149.8600    56.4047    20.1002    10.7100     5.0600     1.5400   707.3000   765.2000  3043.6770 
 3560.6000   149.0000   149.8600    57.7953    19.5476     8.8800     4.3000     6.1800   703.6000   761.6000  3043.7219 
 3560.7000   149.0000   149.8600    57.7594    19.4378     7.2600     3.5500     4.0000   700.5000   758.3000  3043.7671 
 3560.8000   149.0000   149.8600    57.3422    19.5992     6.3200     3.0500     3.1100   694.7000   760.1000  3043.8123 
 3560.9000   149.0000   149.8600    57.8875    19.9055     6.1800     2.9800     1.6300   692.7000   759.0000  3043.8572 
 3561.0000   149.0000   149.8600    59.2313    19.5776     6.5600     3.1400     0.8400   694.6000   754.8000  3043.9023 
 3561.1000   149.0000   149.8600    60.4141    19.2647     6.9800     3.4000     1.1200   694.1000   751.1000  3043.9475 
 3561.2000   149.0000   149.8600    60.3156    18.9226     7.6200     3.7200     1.4200   695.0000   751.4000  3043.9924 
 3561.3000   149.0000   149.8600    58.7375    18.8584     8.2900     4.1700     1.3500   695.4000   752.4000  3044.0376 
 3561.4000   149.0000   149.8600    56.8078    19.0339     9.3400     4.6000     3.0600   695.6000   749.7000  3044.0825 
 3561.5000   149.0000   149.8600    56.2953    19.1877    10.5600     5.3300     2.6100   695.5000   749.4000  3044.1277 
 3561.6000   149.0000   149.8600    57.5812    19.4932    11.1900     5.6700     4.2600   695.6000   752.3000  3044.1729 
 3561.7000   149.0000   149.8600    58.8234    19.1646    10.8500     5.6200     5.8100   698.3000   759.6000  3044.2178 
 3561.8000   149.0000   149.8600    58.8797    18.9124    10.2300     5.3700     8.9600   701.1000   760.4000  3044.2629 
 3561.9000   149.0000   149.8600    58.3969    18.7432    10.2900     5.3400     6.5700   703.2000   761.9000  3044.3079 
 3562.0000   149.0000   149.8600    58.1203    18.5079    11.1900     5.8900     5.2200   703.7000   765.9000  3044.3530 
 3562.1000   149.0000   149.6060    57.9078    19.2669    11.6400     6.2900     9.0300   705.7000   767.4000  3044.3979 
 3562.2000   149.0000   149.8600    57.5094    20.3800    11.6600     6.4400    14.1400   710.0000   771.3000  3044.4431 
 3562.3000   149.0000   149.8600    57.1766    21.5150    11.8800     6.7300    16.3000   710.2000   778.4000  3044.4880 
 3562.4000   149.0000   149.8600    56.4969    22.6823    11.7500     6.9500     9.6000   715.2000   778.0000  3044.5332 
 3562.5000   149.0000   149.8600    55.6641    23.1140    11.7100     7.0400     4.7200   715.9000   778.6000  3044.5781 
 3562.6000   149.0000   149.8600    56.2469    23.2892    12.0400     7.3100     0.9900   716.6000   777.9000  3044.6230 
 3562.7000   149.0000   149.8600    57.7266    23.5326    11.0200     6.7200     1.0300   719.5000   778.9000  3044.6682 
 3562.8000   149.0000   149.8600    57.8656    23.3612     8.4500     5.2400     5.7900   721.0000   780.8000  3044.7131 
 3562.9000   149.0000   149.8600    56.5938    23.2380     7.4800     4.3700     5.4400   722.3000   782.6000  3044.7583 
 3563.0000   149.0000   149.8600    55.3281    22.7288     7.2000     4.0700     5.3800   722.8000   786.5000  3044.8032 
 3563.1000   149.0000   149.8600    54.3281    21.2069     6.4400     3.5900    13.6800   724.4000   786.2000  3044.8481 
 3563.2000   149.0000   149.8600    52.9906    20.1285     5.2700     2.9500     4.1400   726.8000   789.6000  3044.8933 
 3563.3000   149.0000   149.8600    51.4437    19.0109     4.1400     2.2300     1.7000   732.3000   796.4000  3044.9382 
 3563.4000   149.0000   149.8600    50.9234    18.2779     3.7600     1.8800     0.4900   736.1000   799.9000  3044.9832 
 3563.5000   149.0000   149.8600    52.6281    18.3877     3.5100     1.7900     2.9500   738.3000   805.0000  3045.0283 
 3563.6000   149.0000   149.8600    55.7156    18.1123     2.9600     1.5800     5.5000   740.5000   809.8000  3045.0732 
 3563.7000   149.0000   149.6060    58.1875    18.3781     2.1900     1.1200     2.6300   748.2000   813.2000  3045.1182 
 3563.8000   149.0000   149.8600    59.6047    18.4827     1.9200     0.9300     1.7000   750.5000   814.2000  3045.1631 
 3563.9000   149.0000   149.8600    60.5156    18.6614     1.9100     0.8700     0.4800   754.1000   815.3000  3045.2083 
 3564.0000   149.0000   149.8600    61.5844    19.1688     1.9700     0.8700     0.3800   756.3000   816.8000  3045.2532 
 3564.1000   149.0000   149.8600    63.1703    19.4484     2.0100     0.8900     2.0200   759.8000   818.8000  3045.2981 
 3564.2000   149.0000   149.8600    64.8828    20.7808     2.0400     0.8800     0.9000   761.4000   820.0000  3045.3433 
 3564.3000   149.0000   149.8600    65.9359    22.8512     2.2700     0.9400     0.3000   764.0000   824.1000  3045.3882 
 3564.4000   149.0000   149.8600    65.7000    25.2362     2.5700     1.1100     0.4300   770.5000   831.2000  3045.4331 
 3564.5000   149.0000   149.8600    64.6312    27.6598     2.6800     1.2100     0.4800   774.8000   835.0000  3045.4783 
 3564.6000   149.0000   149.8600    63.5594    28.7623     2.5300     1.2000     0.5900   784.0000   838.4000  3045.5232 
 3564.7000   149.0000   149.8600    62.7094    28.3063     2.2500     1.0300     1.1800   789.5000   847.2000  3045.5681 
 3564.8000   149.0000   149.8600    62.0812    27.2063     2.1800     0.9500     1.6100   796.3000   852.1000  3045.6130 
 3564.9000   149.0000   149.8600    61.8672    25.1993     2.2600     0.9500     0.6000   803.5000   862.2000  3045.6582 
