~Version Information
 VERS.                 1.20:   CWLS log ASCII Standard -VERSION 1.20
 WRAP.                   NO:   One line per depth step
~Well Information Block
#MNEM.UNIT       Data Type    Information
#---------     -----------    ---------------------------
 STRT.M              3532.0000:
 STOP.M              3669.0000:
 STEP.M                 0.1000:
 NULL.               -999.2500:
 APD .    ABOVE PERMANENT DATUM:  53.0
 UWI .     API WELLHOLE NUMBER:  2016633897DD
 BHT .    BOTTOMHOLE TEMPERATURE:  N/A
 BLI .    BOTTOM LOGGED INTERVAL:  3669.0
 BS  .                BIT SIZE:  149.0
 CBD .    CASING BOTTOM DRILLER:  7"
 CBL .    CASING BOTTOM LOGGER:  3532.0
 COMP.            COMPANY NAME:  PNiG "PILA" Sp. Z O.O.
 COUN.                  COUNTY:  MONOKLINA PRZEDSUDECKA
 CS  .         CASING DIAMETER:  3532.0
 DATE.            LOGGING DATE:  14.06.2008
 DFD .    DRILLING FLUID DENSITY:  1.96
 DFL .     DRILLING FLUID LOSS:  2.4
 DFPH.       DRILLING FLUID PH:  9.2
 DFT .     DRILLING FLUID TYPE:  SOLNO-BARYTOWA
 DFV .    DRILLING FLUID VISCOSITY:  N/A
 DMF .       DRILLING MEASURED:  P.TER.
 EGL .    ELEVATION OF GROUND LEVEL:  53.0
 EKB .    ELEVATION OF KELLY BUSHING:  6.0
 ENG2.         ENGINEER 2 NAME:  M.GOLONKA
 ENGI.         ENGINEER 1 NAME:  P.DRAG
 EPD .    ELEVATATION OF PERMANENT DATUM:   
 FL1 .    FIELD LOCATION LINE 1:  m. SLONSK
 FL2 .    FIELD LOCATION LINE 2:  woj. LUBUSKIE
 FL3 .    FIELD LOCATION LINE 3:  woj. wielkopolskie
 FLD .              FIELD NAME:  SLONSK
 HDRT.             HEADER TYPE:  OPNHS
 LMF .       LOG MEASURED FROM:  P.TER.
 LUL .    LOGGING UNIT LOCATION:  TORUN
 MCSS.    MUD CAKE SAMPLE SOURCE:  POMIA
 MCST.    MUDCAKE SAMPLE TEMPERATURE:  66.0
 MFSS.    MUD FILTRATE SAMPLE SOURCE:  POMIA
 MFST.    MUD FILTRATE SAMPLE TEMPERATURE:  65.0
 MRT .    MAXIMUM RECORDED TEMPERATURE:  N/A
 MSS .    SOURCE OF MUD SAMPLE:  Z OBIEGU
 MST .    MUD SAMPLE TEMPERATURE:  68.0
 OS1 .    OTHER SERVICES LINE 1:  DSNII,SDLT
 OS2 .    OTHER SERVICES LINE 2:  GRTFA, FWST,
 OS3 .    OTHER SERVICES LINE 3:  WOT
 OS4 .    OTHER SERVICES LINE 4:   
 OS5 .    OTHER SERVICES LINE 5:   
 PDAT.         PERMANENT DATUM:  POZ. MORZA
 R1  .          REMARKS LINE 1:   POMIARY DOWIAZANO DO GLEBOKOSCI WIERTNICZEJ  BUTA RUR 7" .
 R10 .         REMARKS LINE 10:   
 R2  .          REMARKS LINE 2:   SCT: 12.06.2008  GODZ. 01:00  OBIEG 2X 120 MIN.
 R3  .          REMARKS LINE 3:   POMIARU TEMPERATURY NIE WYKONYWANO.
 RMB .    RESISTIVITY OF MUD - BHT:  N/A
 RMCS.    RESISTIVITY OF MUDCAKE SAMPLE:  0.188
 RMFS.    RESISTIVITY OF MUD FILTRATE SAMPLE:  0.052
 RMS .    RESISTIVITY OF MUD SAMPLE:  0.077
 RUN .            RUN NUMBER 1:  2
 PROV.                   STATE:  POLSKA
 TCS .    TIME CIRCULATION STOPPED:   
 TDD .          DRILLERS DEPTH:  3675.00
 TDL .           LOGGERS DEPTH:  -
 TLI .     TOP LOGGED INTERVAL:  3490.0
 TITLE1.    HEADER TITLE LINE 1:  PR.AKUST.,PR.ELEKTR.
 TITLE2.    HEADER TITLE LINE 2:  (3516)3532.0-3669.0m
 TITLE3.    HEADER TITLE LINE 3:  TVD:3030.97-? m
 TITLE4.    HEADER TITLE LINE 4:  skala 1:500
 WITN.          WITNESS 1 NAME:  A.KULIG
 WELL.               WELL NAME:  SLONSK-1K
 XTP .    MAX. REC TEMP. @ 1 (OPEN HOLE):  N/A
~Parameter Information Block
#MNEM.UNIT       Value        Description
#---------     -----------    ---------------------------
 LUN .                   16107:  LOGGING UNIT NUMBER
~Curve Information Block
#MNEM.UNIT                 API CODE     Curve Description
#---------               -----------    ---------------------------
 DEPT.M                 00 000 000 000:  
 BS  .MM                00 000 000 000:                                         
 CALM.MM                00 000 000 000:                                         
 DT  .US/F              00 000 000 000:  DELTA TIME COMPRESSIVE                 
 GR  .GAPI              00 000 000 000:  NATURAL GAMMA                          
 LLD .OHMM              00 000 000 000:                                         
 LLS .OHMM              00 000 000 000:                                         
 MSFL.OHMM              00 000 000 000:                                         
 TT1 .US                00 000 000 000:                                         
 TT2 .US                00 000 000 000:                                         
 TVD .M                 00 000 000 000:                                         
~A  DEPT        BS         CALM       DT         GR         LLD        LLS        MSFL       TT1        TT2        TVD    
# ...
 3644.1000   149.0000   152.9080    53.8609     6.3856 40012.3789 485324.0000   516.7100   675.0000   728.7000  3082.2207 
 3644.2000   149.0000   152.9080    53.8281     6.3020 31558.9609 487570.5000   640.7800   675.2000   728.8000  3082.2739 
 3644.3000   149.0000   153.1620    53.9422     6.5151 54467.4805 489770.9375   847.4900   675.4000   729.0000  3082.3269 
 3644.4000   149.0000   153.1620    54.0938     6.8173 33875.5312 490905.5000  1242.0800   675.1000   729.1000  3082.3799 
 3644.5000   149.0000   153.1620    54.1813     6.9492 35701.4219 611166.3750   541.9200   675.3000   729.0000  3082.4331 
 3644.6000   149.0000   153.1620    54.1750     6.8436 22894.5703 580939.1250   558.5600   675.1000   729.0000  3082.4861 
 3644.7000   149.0000   153.1620    54.1031     6.4103 31477.8398 999538.3750   438.6200   674.8000   728.6000  3082.5391 
 3644.8000   149.0000   153.1620    54.0594     6.0107 30880.4102 488380.9375   386.0900   674.6000   728.2000  3082.5920 
 3644.9000   149.0000   153.1620    54.0672     5.6703 32056.7793 488144.2500   428.2700   674.5000   728.2000  3082.6453 
 3645.0000   149.0000   153.1620    54.0766     5.6311 34118.7617 487476.1875   419.6800   674.2000   727.9000  3082.6982 
 3645.1000   149.0000   153.1620    54.0547     5.9485 46692.7383 487210.8125   633.1500   674.3000   727.5000  3082.7517 
 3645.2000   149.0000   153.1620    54.0266     6.2811 48176.2305 487456.6875   796.5300   673.7000   727.5000  3082.8052 
 3645.3000   149.0000   153.1620    54.0703     6.9082 37666.8711 487657.5000   497.8900   673.9000   727.3000  3082.8584 
 3645.4000   149.0000   153.1620    54.1641     7.2652 28846.2207 487940.9375   691.7200   673.6000   727.3000  3082.9119 
 3645.5000   149.0000   152.9080    54.2203     7.4792 25093.5000 487857.0000   762.9700   673.8000   727.5000  3082.9653 
 3645.6000   149.0000   153.1620    54.2172     7.6410 26725.5703 487506.8750   726.7300   673.5000   727.6000  3083.0188 
 3645.7000   149.0000   153.1620    54.1578     7.4660 24402.7500 1393121.5000   796.6800   673.7000   727.5000  3083.0723 
 3645.8000   149.0000   152.9080    54.0594     7.6201 22425.2109 87396.8438   787.8300   673.6000   727.6000  3083.1255 
 3645.9000   149.0000   153.1620    53.9437     7.6077 23465.3496 106372.6172   675.1100   673.5000   727.7000  3083.1790 
 3646.0000   149.0000   153.1620    53.8359     7.4738 21653.0391 501000.1250  1958.9800   673.6000   727.3000  3083.2324 
 3646.1000   149.0000   152.9080    53.7672     7.4990 23535.1309 257195.9375   848.4000   673.4000   727.4000  3083.2861 
 3646.2000   149.0000   153.1620    53.7078     7.2775 21801.6992 83916.7734   668.8700   673.3000   727.2000  3083.3398 
 3646.3000   149.0000   153.1620    53.6688     7.4111 20172.6504 51277.8789  1795.8800   673.1000   727.0000  3083.3938 
 3646.4000   149.0000   153.1620    53.6922     7.4893 21652.3809 37399.7891   469.1700   672.9000   726.8000  3083.4475 
 3646.5000   149.0000   153.1620    53.7109     7.4035 20456.0898 35062.1406   432.5000   672.8000   726.6000  3083.5012 
 3646.6000   149.0000   152.9080    53.6828     7.2744 19698.1602 57433.7891   448.3400   672.6000   726.7000  3083.5549 
 3646.7000   149.0000   152.9080    53.6500     6.7937 21864.6406 131660.2188   349.1700   672.5000   726.7000  3083.6086 
 3646.8000   149.0000   152.9080    53.6141     6.5079 19158.3105 590568.8750   306.7200   672.4000   726.6000  3083.6626 
 3646.9000   149.0000   152.9080    53.5687     6.4628 23272.3301 939751.2500   568.8300   672.4000   726.1000  3083.7163 
 3647.0000   149.0000   152.9080    53.5016     6.5305 22710.2109 9666704.0000   457.3700   672.2000   726.1000  3083.7700 
 3647.1000   149.0000   152.9080    53.4703     6.7880 34614.8711 222727.9062   542.1300   672.2000   726.1000  3083.8242 
 3647.2000   149.0000   152.9080    53.5516     7.1285 46516.1992 281259.5625   385.2700   672.5000   726.0000  3083.8782 
 3647.3000   149.0000   153.1620    53.6734     7.3639 39167.1406 281193.2500   828.9500   672.5000   726.2000  3083.9324 
 3647.4000   149.0000   153.1620    53.7750     7.5249 35436.4805 281074.6250   460.2400   672.5000   726.3000  3083.9863 
 3647.5000   149.0000   152.9080    53.8453     7.6369 35672.7305 281017.8125   565.7900   672.5000   726.3000  3084.0405 
 3647.6000   149.0000   152.9080    53.8812     7.6244 33396.1289 58957.5508  1098.5800   672.7000   726.3000  3084.0947 
 3647.7000   149.0000   152.9080    53.8781     7.5927 32504.4492 48889.3594   356.3000   672.8000   726.3000  3084.1487 
 3647.8000   149.0000   152.9080    53.7938     7.5927 35691.9102 125744.8125   781.0700   672.6000   726.4000  3084.2029 
 3647.9000   149.0000   152.9080    53.6594     7.5927 41731.9492 141403.9375   768.1400   672.6000   726.5000  3084.2568 
 3648.0000   149.0000   152.9080    53.5656     7.5927 74493.1562 163836.7812   661.0900   672.7000   726.4000  3084.3110 
 3648.1000   149.0000   153.1620    53.5625     7.5927 55994.0117 112841.4062   496.4300   672.7000   726.2000  3084.3655 
 3648.2000   149.0000   152.9080    53.6469     7.5927 47376.0703 116199.0312   566.2200   672.5000   726.2000  3084.4199 
 3648.3000   149.0000   153.1620    53.7906     7.5927 57344.5508 282372.0625   557.6200   672.4000   726.2000  3084.4744 
 3648.4000   149.0000   152.9080    53.9453     7.5927 79078.6719 282204.1250   700.8200   672.6000   726.4000  3084.5288 
 3648.5000   149.0000   153.1620    54.0109     7.5927 101734.9688 281729.8125   638.4600   672.7000   726.3000  3084.5833 
 3648.6000   149.0000   153.1620    53.9484     7.5927 93664.7031 281510.3125   454.0100   672.6000   726.3000  3084.6377 
 3648.7000   149.0000   152.9080    53.8141     7.5927 94912.9766 281645.5625   550.1000   672.6000   726.3000  3084.6921 
 3648.8000   149.0000   152.9080    53.7375     7.5927 176343.9062 281761.1250   345.5300   672.7000   726.2000  3084.7466 
 3648.9000   149.0000   153.1620    53.8016     7.5927 82742.4375 281746.3125   350.7200   672.6000   726.4000  3084.8010 
 3649.0000   149.0000   152.9080    53.9141     7.5927 254081.6562 281428.3125   413.0700   672.5000   726.3000  3084.8555 
 3649.1000   149.0000   152.9080    53.9703     7.5927 57489.6602 280942.6250   413.8800   672.5000   726.3000  3084.9102 
 3649.2000   149.0000   152.9080    53.9719     7.5927 308032.8750 280534.4375   489.9200   672.5000   726.4000  3084.9651 
 3649.3000   149.0000   153.1620    53.9484     7.5927 63192.3281 280441.3750   381.5700   673.0000   726.3000  3085.0198 
 3649.4000   149.0000   153.1620    53.8875     7.5927 66751.4766 279853.6250   540.6900   673.0000   726.6000  3085.0747 
 3649.5000   149.0000   153.1620    53.7953     7.5927 97334.1094 279673.8750   785.7200   672.8000   726.6000  3085.1294 
 3649.6000   149.0000   153.1620    53.7266     7.5927 66981.1562 279974.1250   384.0700   672.8000   726.7000  3085.1841 
 3649.7000   149.0000   153.1620    53.7188     7.5927 47110.3398 280519.1250   732.3100   672.8000   726.6000  3085.2390 
 3649.8000   149.0000   152.9080    53.7438     7.5927 44061.2695 195546.6250   647.3000   672.5000   726.4000  3085.2937 
 3649.9000   149.0000   152.9080    53.7438     7.5927 35978.9219 280578.6875   535.0700   672.4000   726.5000  3085.3486 
 3650.0000   149.0000   153.1620    53.7094     7.5927 32826.5586 280471.2500   677.5100   672.6000   725.9000  3085.4033 
 3650.1000   149.0000   153.1620    53.7172     7.5927 35861.4805 80454.9688  2055.8301   672.7000   726.0000  3085.4585 
 3650.2000   149.0000   152.9080    53.7812     7.5927 35993.6602 48663.7109   472.0200   672.2000   726.1000  3085.5137 
 3650.3000   149.0000   153.1620    53.7766     7.5927 47363.7383 129732.2500   597.5000   672.2000   725.7000  3085.5688 
 3650.4000   149.0000   152.9080    53.6828     7.5927 41659.0586 144828.5000   441.4400   672.1000   725.6000  3085.6240 
 3650.5000   149.0000   153.1620    53.6312     7.5927 54361.3984 282256.2500   414.3300   671.5000   725.6000  3085.6792 
 3650.6000   149.0000   152.9080    53.6562     7.5927 40327.8906 282659.1875   963.9800   671.5000   725.4000  3085.7341 
