~Version Information
 VERS.                 1.20:   CWLS log ASCII Standard -VERSION 1.20
 WRAP.                   NO:   One line per depth step
~Well Information Block
#MNEM.UNIT       Data Type    Information
#---------     -----------    ---------------------------
 STRT.M              3532.0000:
 STOP.M              3669.0000:
 STEP.M                 0.1000:
 NULL.               -999.2500:
 APD .    ABOVE PERMANENT DATUM:  53.0
 UWI .     API WELLHOLE NUMBER:  2016633897DD
 BHT .    BOTTOMHOLE TEMPERATURE:  N/A
 BLI .    BOTTOM LOGGED INTERVAL:  3669.0
 BS  .                BIT SIZE:  149.0
 CBD .    CASING BOTTOM DRILLER:  7"
 CBL .    CASING BOTTOM LOGGER:  3532.0
 COMP.            COMPANY NAME:  PNiG "PILA" Sp. Z O.O.
 COUN.                  COUNTY:  MONOKLINA PRZEDSUDECKA
 CS  .         CASING DIAMETER:  3532.0
 DATE.            LOGGING DATE:  14.06.2008
 DFD .    DRILLING FLUID DENSITY:  1.96
 DFL .     DRILLING FLUID LOSS:  2.4
 DFPH.       DRILLING FLUID PH:  9.2
 DFT .     DRILLING FLUID TYPE:  SOLNO-BARYTOWA
 DFV .    DRILLING FLUID VISCOSITY:  N/A
 DMF .       DRILLING MEASURED:  P.TER.
 EGL .    ELEVATION OF GROUND LEVEL:  53.0
 EKB .    ELEVATION OF KELLY BUSHING:  6.0
 ENG2.         ENGINEER 2 NAME:  M.GOLONKA
 ENGI.         ENGINEER 1 NAME:  P.DRAG
 EPD .    ELEVATATION OF PERMANENT DATUM:   
 FL1 .    FIELD LOCATION LINE 1:  m. SLONSK
 FL2 .    FIELD LOCATION LINE 2:  woj. LUBUSKIE
 FL3 .    FIELD LOCATION LINE 3:  woj. wielkopolskie
 FLD .              FIELD NAME:  SLONSK
 HDRT.             HEADER TYPE:  OPNHS
 LMF .       LOG MEASURED FROM:  P.TER.
 LUL .    LOGGING UNIT LOCATION:  TORUN
 MCSS.    MUD CAKE SAMPLE SOURCE:  POMIA
 MCST.    MUDCAKE SAMPLE TEMPERATURE:  66.0
 MFSS.    MUD FILTRATE SAMPLE SOURCE:  POMIA
 MFST.    MUD FILTRATE SAMPLE TEMPERATURE:  65.0
 MRT .    MAXIMUM RECORDED TEMPERATURE:  N/A
 MSS .    SOURCE OF MUD SAMPLE:  Z OBIEGU
 MST .    MUD SAMPLE TEMPERATURE:  68.0
 OS1 .    OTHER SERVICES LINE 1:  DSNII,SDLT
 OS2 .    OTHER SERVICES LINE 2:  GRTFA, FWST,
 OS3 .    OTHER SERVICES LINE 3:  WOT
 OS4 .    OTHER SERVICES LINE 4:   
 OS5 .    OTHER SERVICES LINE 5:   
 PDAT.         PERMANENT DATUM:  POZ. MORZA
 R1  .          REMARKS LINE 1:   POMIARY DOWIAZANO DO GLEBOKOSCI WIERTNICZEJ  BUTA RUR 7" .
 R10 .         REMARKS LINE 10:   
 R2  .          REMARKS LINE 2:   SCT: 12.06.2008  GODZ. 01:00  OBIEG 2X 120 MIN.
 R3  .          REMARKS LINE 3:   POMIARU TEMPERATURY NIE WYKONYWANO.
 RMB .    RESISTIVITY OF MUD - BHT:  N/A
 RMCS.    RESISTIVITY OF MUDCAKE SAMPLE:  0.188
 RMFS.    RESISTIVITY OF MUD FILTRATE SAMPLE:  0.052
 RMS .    RESISTIVITY OF MUD SAMPLE:  0.077
 RUN .            RUN NUMBER 1:  2
 PROV.                   STATE:  POLSKA
 TCS .    TIME CIRCULATION STOPPED:   
 TDD .          DRILLERS DEPTH:  3675.00
 TDL .           LOGGERS DEPTH:  -
 TLI .     TOP LOGGED INTERVAL:  3490.0
 TITLE1.    HEADER TITLE LINE 1:  PR.AKUST.,PR.ELEKTR.
 TITLE2.    HEADER TITLE LINE 2:  (3516)3532.0-3669.0m
 TITLE3.    HEADER TITLE LINE 3:  TVD:3030.97-? m
 TITLE4.    HEADER TITLE LINE 4:  skala 1:500
 WITN.          WITNESS 1 NAME:  A.KULIG
 WELL.               WELL NAME:  SLONSK-1K
 XTP .    MAX. REC TEMP. @ 1 (OPEN HOLE):  N/A
~Parameter Information Block
#MNEM.UNIT       Value        Description
#---------     -----------    ---------------------------
 LUN .                   16107:  LOGGING UNIT NUMBER
~Curve Information Block
#MNEM.UNIT                 API CODE     Curve Description
#---------               -----------    ---------------------------
 DEPT.M                 00 000 000 000:  
 BS  .MM                00 000 000 000:                                         
 CALM.MM                00 000 000 000:                                         
 DT  .US/F              00 000 000 000:  DELTA TIME COMPRESSIVE                 
 GR  .GAPI              00 000 000 000:  NATURAL GAMMA                          
 LLD .OHMM              00 000 000 000:                                         
 LLS .OHMM              00 000 000 000:                                         
 MSFL.OHMM              00 000 000 000:                                         
 TT1 .US                00 000 000 000:                                         
 TT2 .US                00 000 000 000:                                         
 TVD .M                 00 000 000 000:                                         
~A  DEPT        BS         CALM       DT         GR         LLD        LLS        MSFL       TT1        TT2        TVD    
# ...
 3663.9000  -999.2500   148.5900    55.8000     7.5927 36911.6016 585498.7500   221.6700     4.0000     4.0000  -999.2500 
 3664.0000  -999.2500   148.5900    61.7719     7.5927 37921.6016 151838.9375   317.4000     4.0000     4.0000  -999.2500 
 3664.1000  -999.2500   148.5900    67.8484     7.5927 37685.9688 53843.7305   396.9400     4.0000     4.0000  -999.2500 
 3664.2000  -999.2500   148.5900    65.4469     7.5927 36763.8906 268137.9375   295.0800     4.0000     4.0000  -999.2500 
 3664.3000  -999.2500   148.5900    57.7703     7.5927 34133.4492 83640.5781   450.9200     4.0000     4.0000  -999.2500 
 3664.4000  -999.2500   148.5900    53.9625     7.5927 38401.0898 160406.1562   551.4000     4.0000     4.0000  -999.2500 
 3664.5000  -999.2500   148.5900    53.7484     7.5927 33642.3281 152332.7812   675.1400     4.0000     4.0000  -999.2500 
 3664.6000  -999.2500   148.5900    53.9688     7.5927 39015.8789 182019.4688  1133.9700     4.0000     4.0000  -999.2500 
 3664.7000  -999.2500   148.5900    54.1203     7.5927 40391.1992 68377.3438   547.6400     4.0000     4.0000  -999.2500 
 3664.8000  -999.2500   148.5900    54.0500     7.5927 39633.7305 114856.7500   460.5000     4.0000     4.0000  -999.2500 
 3664.9000  -999.2500   148.5900    53.9500     7.5927 33806.3203 99739.9766   563.6200     4.0000     4.0000  -999.2500 
 3665.0000  -999.2500   148.5900    53.8891     7.5927 34530.1914 141447.0000   717.5600     4.0000     4.0000  -999.2500 
 3665.1000  -999.2500   148.5900    53.7875     7.5927 35266.7500 197336.6875   650.6600     4.0000     4.0000  -999.2500 
 3665.2000  -999.2500   148.5900    53.7625     7.5927 33818.6016 77471.4766   397.7300     4.0000     4.0000  -999.2500 
 3665.3000  -999.2500   148.5900    53.9547     7.5927 30666.6406 235539.4375   350.6300     4.0000     4.0000  -999.2500 
 3665.4000  -999.2500   148.5900    54.2078     7.5927 31583.5605 61221.9492   298.2300     4.0000     4.0000  -999.2500 
 3665.5000  -999.2500   148.5900    54.1891     7.5927 35339.6211 189709.8125   297.4200     4.0000     4.0000  -999.2500 
 3665.6000  -999.2500   148.5900    53.8328     7.5927 33634.8008 184479.8438   503.6200     4.0000     4.0000  -999.2500 
 3665.7000  -999.2500   148.5900    53.5219     7.5927 30406.2598 111579.9375   619.8100     4.0000     4.0000  -999.2500 
 3665.8000  -999.2500   148.5900    53.4609     7.5927  -999.2500  -999.2500   549.1100     4.0000     4.0000  -999.2500 
 3665.9000  -999.2500   148.5900    53.5391     7.5927  -999.2500  -999.2500   554.8300     4.0000     4.0000  -999.2500 
 3666.0000  -999.2500   148.5900    53.7516     7.5927  -999.2500  -999.2500   367.9300     4.0000     4.0000  -999.2500 
 3666.1000  -999.2500   148.0820    53.8187     7.5927  -999.2500  -999.2500   350.8500     4.0000     4.0000  -999.2500 
 3666.2000  -999.2500   148.0820    53.6437     7.5927  -999.2500  -999.2500   268.9500     4.0000     4.0000  -999.2500 
 3666.3000  -999.2500   148.0820    53.6344     7.5927  -999.2500  -999.2500   589.3900     4.0000     4.0000  -999.2500 
 3666.4000  -999.2500   148.0820    53.7812     7.5927  -999.2500  -999.2500   408.7300     4.0000     4.0000  -999.2500 
 3666.5000  -999.2500   148.0820    53.8219     7.5927  -999.2500  -999.2500   311.0100     4.0000     4.0000  -999.2500 
 3666.6000  -999.2500   148.0820    53.8531     7.5927  -999.2500  -999.2500   381.4800     4.0000     4.0000  -999.2500 
 3666.7000  -999.2500   148.0820    53.9547     7.5927  -999.2500  -999.2500   555.5500     4.0000     4.0000  -999.2500 
 3666.8000  -999.2500   148.0820    53.9891     7.5927  -999.2500  -999.2500   641.8400     4.0000     4.0000  -999.2500 
 3666.9000  -999.2500   148.0820    53.9844     7.5927  -999.2500  -999.2500   574.5000     4.0000     4.0000  -999.2500 
 3667.0000  -999.2500   148.0820    53.9844     7.5927  -999.2500  -999.2500  1167.4200     4.0000     4.0000  -999.2500 
 3667.1000  -999.2500   148.0820    53.9781     7.5927  -999.2500  -999.2500   758.5400     4.0000     4.0000  -999.2500 
 3667.2000  -999.2500   148.0820    54.0828     7.5927  -999.2500  -999.2500   557.4700     4.0000     4.0000  -999.2500 
 3667.3000  -999.2500   148.0820    54.1047     7.5927  -999.2500  -999.2500   540.5800     4.0000     4.0000  -999.2500 
 3667.4000  -999.2500   148.0820    53.8703     7.5927  -999.2500  -999.2500   176.3400     4.0000     4.0000  -999.2500 
 3667.5000  -999.2500   148.0820    53.4562     7.5927  -999.2500  -999.2500   344.6100     4.0000     4.0000  -999.2500 
 3667.6000  -999.2500   148.0820    53.1297     7.5927  -999.2500  -999.2500   644.7800     4.0000     4.0000  -999.2500 
 3667.7000  -999.2500   148.0820    53.2297     7.5927  -999.2500  -999.2500   473.4200     4.0000     4.0000  -999.2500 
 3667.8000  -999.2500   148.0820    53.4000     7.5927  -999.2500  -999.2500   207.5500     4.0000     4.0000  -999.2500 
 3667.9000  -999.2500   148.0820    53.4000     7.5927  -999.2500  -999.2500   202.3900     4.0000     4.0000  -999.2500 
 3668.0000  -999.2500   148.0820    53.4000     7.5927  -999.2500  -999.2500   681.9400     4.0000     4.0000  -999.2500 
 3668.1000  -999.2500   148.0820    53.4000     7.5927  -999.2500  -999.2500   327.6300     4.0000     4.0000  -999.2500 
 3668.2000  -999.2500   148.0820    53.4000     7.5927  -999.2500  -999.2500   388.3300     4.0000     4.0000  -999.2500 
 3668.3000  -999.2500   148.0820    53.4000     7.5927  -999.2500  -999.2500   399.3900     4.0000     4.0000  -999.2500 
 3668.4000  -999.2500   148.0820    53.4000     7.5927  -999.2500  -999.2500   436.9300     4.0000     4.0000  -999.2500 
 3668.5000  -999.2500   147.0660    53.4000     7.5927  -999.2500  -999.2500   515.0100     4.0000     4.0000  -999.2500 
 3668.6000  -999.2500   146.5580    53.4000     7.5927  -999.2500  -999.2500   748.8900     4.0000     4.0000  -999.2500 
 3668.7000  -999.2500   146.5580    53.4000     7.5927  -999.2500  -999.2500   691.9600     4.0000     4.0000  -999.2500 
 3668.8000  -999.2500   146.5580    53.4000     7.5927  -999.2500  -999.2500   537.1800     4.0000     4.0000  -999.2500 
 3668.9000  -999.2500   146.5580    53.4000     7.5927  -999.2500  -999.2500   515.6800     4.0000     4.0000  -999.2500 
 3669.0000  -999.2500   146.3040    53.4000     7.5927  -999.2500  -999.2500  2406.4900     4.0000     4.0000  -999.2500 
