~Version Information
 VERS.                 1.20:   CWLS log ASCII Standard -VERSION 1.20
 WRAP.                   NO:   One line per depth step
~Well Information Block
#MNEM.UNIT       Data Type    Information
#---------     -----------    ---------------------------
 STRT.M              3532.0000:
 STOP.M              3669.0000:
 STEP.M                 0.1000:
 NULL.               -999.2500:
 APD .    ABOVE PERMANENT DATUM:  53.0
 UWI .     API WELLHOLE NUMBER:  2016633897DD
 BHT .    BOTTOMHOLE TEMPERATURE:  N/A
 BLI .    BOTTOM LOGGED INTERVAL:  3669.0
 BS  .                BIT SIZE:  149.0
 CBD .    CASING BOTTOM DRILLER:  7"
 CBL .    CASING BOTTOM LOGGER:  3532.0
 COMP.            COMPANY NAME:  PNiG "PILA" Sp. Z O.O.
 COUN.                  COUNTY:  MONOKLINA PRZEDSUDECKA
 CS  .         CASING DIAMETER:  3532.0
 DATE.            LOGGING DATE:  14.06.2008
 DFD .    DRILLING FLUID DENSITY:  1.96
 DFL .     DRILLING FLUID LOSS:  2.4
 DFPH.       DRILLING FLUID PH:  9.2
 DFT .     DRILLING FLUID TYPE:  SOLNO-BARYTOWA
 DFV .    DRILLING FLUID VISCOSITY:  N/A
 DMF .       DRILLING MEASURED:  P.TER.
 EGL .    ELEVATION OF GROUND LEVEL:  53.0
 EKB .    ELEVATION OF KELLY BUSHING:  6.0
 ENG2.         ENGINEER 2 NAME:  M.GOLONKA
 ENGI.         ENGINEER 1 NAME:  P.DRAG
 EPD .    ELEVATATION OF PERMANENT DATUM:   
 FL1 .    FIELD LOCATION LINE 1:  m. SLONSK
 FL2 .    FIELD LOCATION LINE 2:  woj. LUBUSKIE
 FL3 .    FIELD LOCATION LINE 3:  woj. wielkopolskie
 FLD .              FIELD NAME:  SLONSK
 HDRT.             HEADER TYPE:  OPNHS
 LMF .       LOG MEASURED FROM:  P.TER.
 LUL .    LOGGING UNIT LOCATION:  TORUN
 MCSS.    MUD CAKE SAMPLE SOURCE:  POMIA
 MCST.    MUDCAKE SAMPLE TEMPERATURE:  66.0
 MFSS.    MUD FILTRATE SAMPLE SOURCE:  POMIA
 MFST.    MUD FILTRATE SAMPLE TEMPERATURE:  65.0
 MRT .    MAXIMUM RECORDED TEMPERATURE:  N/A
 MSS .    SOURCE OF MUD SAMPLE:  Z OBIEGU
 MST .    MUD SAMPLE TEMPERATURE:  68.0
 OS1 .    OTHER SERVICES LINE 1:  DSNII,SDLT
 OS2 .    OTHER SERVICES LINE 2:  GRTFA, FWST,
 OS3 .    OTHER SERVICES LINE 3:  WOT
 OS4 .    OTHER SERVICES LINE 4:   
 OS5 .    OTHER SERVICES LINE 5:   
 PDAT.         PERMANENT DATUM:  POZ. MORZA
 R1  .          REMARKS LINE 1:   POMIARY DOWIAZANO DO GLEBOKOSCI WIERTNICZEJ  BUTA RUR 7" .
 R10 .         REMARKS LINE 10:   
 R2  .          REMARKS LINE 2:   SCT: 12.06.2008  GODZ. 01:00  OBIEG 2X 120 MIN.
 R3  .          REMARKS LINE 3:   POMIARU TEMPERATURY NIE WYKONYWANO.
 RMB .    RESISTIVITY OF MUD - BHT:  N/A
 RMCS.    RESISTIVITY OF MUDCAKE SAMPLE:  0.188
 RMFS.    RESISTIVITY OF MUD FILTRATE SAMPLE:  0.052
 RMS .    RESISTIVITY OF MUD SAMPLE:  0.077
 RUN .            RUN NUMBER 1:  2
 PROV.                   STATE:  POLSKA
 TCS .    TIME CIRCULATION STOPPED:   
 TDD .          DRILLERS DEPTH:  3675.00
 TDL .           LOGGERS DEPTH:  -
 TLI .     TOP LOGGED INTERVAL:  3490.0
 TITLE1.    HEADER TITLE LINE 1:  PR.AKUST.,PR.ELEKTR.
 TITLE2.    HEADER TITLE LINE 2:  (3516)3532.0-3669.0m
 TITLE3.    HEADER TITLE LINE 3:  TVD:3030.97-? m
 TITLE4.    HEADER TITLE LINE 4:  skala 1:500
 WITN.          WITNESS 1 NAME:  A.KULIG
 WELL.               WELL NAME:  SLONSK-1K
 XTP .    MAX. REC TEMP. @ 1 (OPEN HOLE):  N/A
~Parameter Information Block
#MNEM.UNIT       Value        Description
#---------     -----------    ---------------------------
 LUN .                   16107:  LOGGING UNIT NUMBER
~Curve Information Block
#MNEM.UNIT                 API CODE     Curve Description
#---------               -----------    ---------------------------
 DEPT.M                 00 000 000 000:  
 BS  .MM                00 000 000 000:                                         
 CALM.MM                00 000 000 000:                                         
 DT  .US/F              00 000 000 000:  DELTA TIME COMPRESSIVE                 
 GR  .GAPI              00 000 000 000:  NATURAL GAMMA                          
 LLD .OHMM              00 000 000 000:                                         
 LLS .OHMM              00 000 000 000:                                         
 MSFL.OHMM              00 000 000 000:                                         
 TT1 .US                00 000 000 000:                                         
 TT2 .US                00 000 000 000:                                         
 TVD .M                 00 000 000 000:                                         
~A  DEPT        BS         CALM       DT         GR         LLD        LLS        MSFL       TT1        TT2        TVD    
# ...
 3604.6000   149.0000   149.6060    56.9766    22.2894     1.5600     0.9500     0.5200   734.6000   791.7000  3063.2761 
 3604.7000   149.0000   149.8600    58.2578    22.0880     1.4400     0.8600     3.3500   737.6000   792.1000  3063.3215 
 3604.8000   149.0000   149.8600    60.1297    22.3165     1.3500     0.8000     5.6300   736.4000   796.6000  3063.3669 
 3604.9000   149.0000   149.8600    61.7828    22.2037     1.1700     0.7500     0.7400   737.0000   796.1000  3063.4124 
 3605.0000   149.0000   149.8600    62.6734    22.0035     1.0000     0.5800     0.2500   737.4000   796.2000  3063.4578 
 3605.1000   149.0000   149.8600    63.4547    22.2943     0.9700     0.5200     0.2500   735.0000   798.6000  3063.5034 
 3605.2000   149.0000   149.8600    65.1953    22.3478     1.0200     0.5400     0.2100   734.9000   797.3000  3063.5488 
 3605.3000   149.0000   149.8600    67.3203    22.7410     1.0700     0.5600     0.2000   737.6000   794.9000  3063.5945 
 3605.4000   149.0000   149.8600    68.2312    23.5586     1.1300     0.6000     0.6000   738.0000   793.6000  3063.6399 
 3605.5000   149.0000   149.6060    67.2203    23.4010     1.2500     0.6600     0.4100   739.1000   794.2000  3063.6855 
 3605.6000   149.0000   149.6060    64.8625    22.5682     1.4500     0.7500     0.4200   742.1000   796.0000  3063.7312 
 3605.7000   149.0000   149.8600    62.3734    21.3966     1.6200     0.8700     0.6100   742.7000   796.8000  3063.7766 
 3605.8000   149.0000   149.8600    60.4953    19.6841     1.6600     0.8900     0.7800   743.0000   797.5000  3063.8223 
 3605.9000   149.0000   149.8600    59.6937    18.8653     1.7300     0.9000     0.8200   743.3000   797.8000  3063.8677 
 3606.0000   149.0000   149.6060    60.1625    18.7222     1.8600     0.9600     0.6200   742.1000   798.5000  3063.9133 
 3606.1000   149.0000   149.8600    60.8156    19.5260     1.8900     0.9900     1.0200   739.5000   800.2000  3063.9590 
 3606.2000   149.0000   149.8600    60.5719    21.0587     1.8900     0.9700     1.3400   735.8000   800.3000  3064.0044 
 3606.3000   149.0000   149.6060    59.9047    22.1072     2.0000     1.0000     1.7400   735.8000   797.7000  3064.0500 
 3606.4000   149.0000   149.8600    59.6937    22.8794     2.1200     1.0700     3.2600   736.0000   796.4000  3064.0957 
 3606.5000   149.0000   149.8600    59.7438    22.7629     2.0800     1.0500     1.9000   734.6000   795.1000  3064.1414 
 3606.6000   149.0000   149.8600    59.4172    21.8376     2.0600     1.0400     3.4300   731.2000   794.9000  3064.1868 
 3606.7000   149.0000   149.8600    58.7938    20.6893     2.0600     1.0600     1.1400   725.0000   790.6000  3064.2324 
 3606.8000   149.0000   149.8600    58.7359    19.5210     2.2000     1.1400     1.2200   723.4000   786.7000  3064.2781 
 3606.9000   149.0000   149.8600    59.6328    18.3627     2.3400     1.2800     1.5600   721.2000   780.1000  3064.3235 
 3607.0000   149.0000   149.8600    60.3047    17.6463     2.2800     1.2600     2.1400   719.5000   777.6000  3064.3691 
 3607.1000   149.0000   149.6060    59.7953    17.2843     2.4600     1.3400     1.9000   718.1000   775.7000  3064.4148 
 3607.2000   149.0000   149.6060    58.6266    16.9665     2.6700     1.5000     1.5900   716.7000   776.6000  3064.4602 
 3607.3000   149.0000   149.6060    57.6813    17.0131     2.7500     1.5600     1.4400   716.5000   778.9000  3064.5059 
 3607.4000   149.0000   149.8600    57.4016    17.0563     2.7800     1.6000     1.0200   716.9000   783.1000  3064.5513 
 3607.5000   149.0000   149.8600    57.3859    17.5423     2.7500     1.6200     0.8900   719.6000   781.8000  3064.5969 
 3607.6000   149.0000   149.6060    56.7969    18.5824     2.5900     1.5600     1.3300   722.4000   780.0000  3064.6426 
 3607.7000   149.0000   149.8600    55.8406    19.5909     2.4800     1.5000     1.3200   721.6000   780.3000  3064.6880 
 3607.8000   149.0000   149.8600    55.6437    20.7351     2.3800     1.4700     2.6400   719.7000   781.4000  3064.7336 
 3607.9000   149.0000   149.8600    56.4203    21.3982     2.1700     1.3800     0.8800   720.0000   779.7000  3064.7791 
 3608.0000   149.0000   149.8600    57.5844    21.3326     1.9400     1.2300     1.9600   721.7000   773.7000  3064.8247 
 3608.1000   149.0000   149.8600    58.7203    21.1091     1.8800     1.1800     3.6800   719.3000   773.7000  3064.8704 
 3608.2000   149.0000   149.8600    59.4734    20.5036     1.9000     1.1800     0.9800   717.0000   776.3000  3064.9158 
 3608.3000   149.0000   149.8600    59.6672    19.2897     2.0400     1.2400     0.5200   714.2000   778.1000  3064.9614 
 3608.4000   149.0000   149.8600    59.5797    18.4486     2.2600     1.4000     3.5200   716.9000   780.7000  3065.0068 
 3608.5000   149.0000   149.8600    59.5000    17.6802     2.3300     1.4700     1.0300   719.1000   779.4000  3065.0525 
 3608.6000   149.0000   149.6060    59.0406    16.7594     2.5200     1.5700     1.2300   721.5000   784.0000  3065.0979 
 3608.7000   149.0000   149.6060    58.0438    16.5947     2.8000     1.7800     5.7600   722.9000   785.9000  3065.1436 
 3608.8000   149.0000   149.6060    57.2547    16.5129     2.7800     1.8700     5.0500   724.5000   787.2000  3065.1890 
 3608.9000   149.0000   149.8600    57.8063    16.5419     2.3800     1.6400     1.8900   727.8000   792.8000  3065.2346 
 3609.0000   149.0000   149.8600    59.6297    17.1431     2.1600     1.4500     1.0100   729.4000   795.1000  3065.2800 
 3609.1000   149.0000   149.6060    61.0969    17.8846     2.0200     1.3700     9.3700   737.8000   793.1000  3065.3257 
 3609.2000   149.0000   149.8600    61.5719    18.6785     1.8400     1.3000     0.8500   738.7000   792.7000  3065.3711 
 3609.3000   149.0000   149.8600    61.6734    19.3028     1.6800     1.1600     0.6300   737.2000   792.4000  3065.4167 
 3609.4000   149.0000   149.8600    61.9328    20.0702     1.6200     1.1000     0.6100   736.6000   793.0000  3065.4622 
 3609.5000   149.0000   149.8600    62.1813    20.2701     1.7200     1.1500     0.2000   735.1000   794.2000  3065.5078 
 3609.6000   149.0000   149.8600    62.1516    20.1625     1.7600     1.2100     1.9100   734.1000   794.4000  3065.5532 
 3609.7000   149.0000   149.8600    61.7906    20.0312     2.0800     1.4500     3.6200   734.4000   794.2000  3065.5989 
 3609.8000   149.0000   149.8600    60.8531    19.0852     2.2500     1.5600    13.5500   734.3000   793.8000  3065.6443 
 3609.9000   149.0000   149.8600    59.9672    18.4286     2.4500     1.7600     5.7800   734.3000   794.4000  3065.6899 
 3610.0000   149.0000   149.8600    60.3719    17.7380     2.4600     1.9200     0.7200   736.0000   795.0000  3065.7354 
 3610.1000   149.0000   149.8600    62.1703    17.2706     2.1500     1.8100     1.9300   737.0000   795.8000  3065.7810 
 3610.2000   149.0000   149.8600    64.2094    17.6103     1.7800     1.4500     0.6000   737.1000   801.8000  3065.8267 
 3610.3000   149.0000   149.8600    65.2750    18.3701     1.6700     1.3000     0.1900   737.0000   804.1000  3065.8721 
 3610.4000   149.0000   149.8600    65.3531    19.1544     1.5700     1.2400     0.2500   737.1000   804.1000  3065.9177 
 3610.5000   149.0000   149.8600    65.3719    20.1358     1.4100     1.1200     0.1500   742.9000   804.1000  3065.9634 
 3610.6000   149.0000   149.8600    65.6906    20.9522     1.2800     1.0000     0.1100   750.3000   811.2000  3066.0090 
 3610.7000   149.0000   149.8600    66.2391    20.8025     1.2600     0.9700     0.1000   751.2000   813.3000  3066.0547 
 3610.8000   149.0000   149.6060    66.6094    20.7715     1.3900     1.0600     0.1500   749.8000   813.1000  3066.1001 
 3610.9000   149.0000   149.8600    65.8953    20.3545     1.5800     1.2000     0.2000   740.3000   806.5000  3066.1458 
 3611.0000   149.0000   149.8600    63.7250    19.3230     1.9500     1.3600     1.0300   737.5000   794.9000  3066.1914 
 3611.1000   149.0000   149.8600    61.3000    18.8054     2.6400     1.8400     2.6800   735.7000   789.7000  3066.2371 
