~Version Information
 VERS.                 1.20:   CWLS log ASCII Standard -VERSION 1.20
 WRAP.                   NO:   One line per depth step
~Well Information Block
#MNEM.UNIT       Data Type    Information
#---------     -----------    ---------------------------
 STRT.M              3532.0000:
 STOP.M              3669.0000:
 STEP.M                 0.1000:
 NULL.               -999.2500:
 APD .    ABOVE PERMANENT DATUM:  53.0
 UWI .     API WELLHOLE NUMBER:  2016633897DD
 BHT .    BOTTOMHOLE TEMPERATURE:  N/A
 BLI .    BOTTOM LOGGED INTERVAL:  3669.0
 BS  .                BIT SIZE:  149.0
 CBD .    CASING BOTTOM DRILLER:  7"
 CBL .    CASING BOTTOM LOGGER:  3532.0
 COMP.            COMPANY NAME:  PNiG "PILA" Sp. Z O.O.
 COUN.                  COUNTY:  MONOKLINA PRZEDSUDECKA
 CS  .         CASING DIAMETER:  3532.0
 DATE.            LOGGING DATE:  14.06.2008
 DFD .    DRILLING FLUID DENSITY:  1.96
 DFL .     DRILLING FLUID LOSS:  2.4
 DFPH.       DRILLING FLUID PH:  9.2
 DFT .     DRILLING FLUID TYPE:  SOLNO-BARYTOWA
 DFV .    DRILLING FLUID VISCOSITY:  N/A
 DMF .       DRILLING MEASURED:  P.TER.
 EGL .    ELEVATION OF GROUND LEVEL:  53.0
 EKB .    ELEVATION OF KELLY BUSHING:  6.0
 ENG2.         ENGINEER 2 NAME:  M.GOLONKA
 ENGI.         ENGINEER 1 NAME:  P.DRAG
 EPD .    ELEVATATION OF PERMANENT DATUM:   
 FL1 .    FIELD LOCATION LINE 1:  m. SLONSK
 FL2 .    FIELD LOCATION LINE 2:  woj. LUBUSKIE
 FL3 .    FIELD LOCATION LINE 3:  woj. wielkopolskie
 FLD .              FIELD NAME:  SLONSK
 HDRT.             HEADER TYPE:  OPNHS
 LMF .       LOG MEASURED FROM:  P.TER.
 LUL .    LOGGING UNIT LOCATION:  TORUN
 MCSS.    MUD CAKE SAMPLE SOURCE:  POMIA
 MCST.    MUDCAKE SAMPLE TEMPERATURE:  66.0
 MFSS.    MUD FILTRATE SAMPLE SOURCE:  POMIA
 MFST.    MUD FILTRATE SAMPLE TEMPERATURE:  65.0
 MRT .    MAXIMUM RECORDED TEMPERATURE:  N/A
 MSS .    SOURCE OF MUD SAMPLE:  Z OBIEGU
 MST .    MUD SAMPLE TEMPERATURE:  68.0
 OS1 .    OTHER SERVICES LINE 1:  DSNII,SDLT
 OS2 .    OTHER SERVICES LINE 2:  GRTFA, FWST,
 OS3 .    OTHER SERVICES LINE 3:  WOT
 OS4 .    OTHER SERVICES LINE 4:   
 OS5 .    OTHER SERVICES LINE 5:   
 PDAT.         PERMANENT DATUM:  POZ. MORZA
 R1  .          REMARKS LINE 1:   POMIARY DOWIAZANO DO GLEBOKOSCI WIERTNICZEJ  BUTA RUR 7" .
 R10 .         REMARKS LINE 10:   
 R2  .          REMARKS LINE 2:   SCT: 12.06.2008  GODZ. 01:00  OBIEG 2X 120 MIN.
 R3  .          REMARKS LINE 3:   POMIARU TEMPERATURY NIE WYKONYWANO.
 RMB .    RESISTIVITY OF MUD - BHT:  N/A
 RMCS.    RESISTIVITY OF MUDCAKE SAMPLE:  0.188
 RMFS.    RESISTIVITY OF MUD FILTRATE SAMPLE:  0.052
 RMS .    RESISTIVITY OF MUD SAMPLE:  0.077
 RUN .            RUN NUMBER 1:  2
 PROV.                   STATE:  POLSKA
 TCS .    TIME CIRCULATION STOPPED:   
 TDD .          DRILLERS DEPTH:  3675.00
 TDL .           LOGGERS DEPTH:  -
 TLI .     TOP LOGGED INTERVAL:  3490.0
 TITLE1.    HEADER TITLE LINE 1:  PR.AKUST.,PR.ELEKTR.
 TITLE2.    HEADER TITLE LINE 2:  (3516)3532.0-3669.0m
 TITLE3.    HEADER TITLE LINE 3:  TVD:3030.97-? m
 TITLE4.    HEADER TITLE LINE 4:  skala 1:500
 WITN.          WITNESS 1 NAME:  A.KULIG
 WELL.               WELL NAME:  SLONSK-1K
 XTP .    MAX. REC TEMP. @ 1 (OPEN HOLE):  N/A
~Parameter Information Block
#MNEM.UNIT       Value        Description
#---------     -----------    ---------------------------
 LUN .                   16107:  LOGGING UNIT NUMBER
~Curve Information Block
#MNEM.UNIT                 API CODE     Curve Description
#---------               -----------    ---------------------------
 DEPT.M                 00 000 000 000:  
 BS  .MM                00 000 000 000:                                         
 CALM.MM                00 000 000 000:                                         
 DT  .US/F              00 000 000 000:  DELTA TIME COMPRESSIVE                 
 GR  .GAPI              00 000 000 000:  NATURAL GAMMA                          
 LLD .OHMM              00 000 000 000:                                         
 LLS .OHMM              00 000 000 000:                                         
 MSFL.OHMM              00 000 000 000:                                         
 TT1 .US                00 000 000 000:                                         
 TT2 .US                00 000 000 000:                                         
 TVD .M                 00 000 000 000:                                         
~A  DEPT        BS         CALM       DT         GR         LLD        LLS        MSFL       TT1        TT2        TVD    
# ...
 3637.6000   149.0000   153.1620    54.1984     6.2940 63657.8906 651360.1250  1046.2300   678.5000   733.0000  3078.8511 
 3637.7000   149.0000   153.1620    54.3594     6.2683 17140.8809 24342.6602  1059.7200   678.5000   733.1000  3078.9016 
 3637.8000   149.0000   152.9080    54.4375     6.3117 11557.0801 18702.8301  1307.1500   678.6000   732.9000  3078.9524 
 3637.9000   149.0000   152.9080    54.4328     6.3119 13751.3398 14756.5898  7915.2002   678.8000   733.0000  3079.0029 
 3638.0000   149.0000   153.1620    54.3672     6.3779 13036.0801 14120.8096   138.0700   678.3000   732.8000  3079.0537 
 3638.1000   149.0000   152.9080    54.2422     6.2256 13180.6602 14313.4697   151.3400   678.0000   732.6000  3079.1047 
 3638.2000   149.0000   153.1620    54.2188     6.0123 11433.1797 17059.5996   258.8700   677.6000   732.2000  3079.1558 
 3638.3000   149.0000   153.1620    54.3406     6.0455 14834.9600 21419.1504  1149.4800   677.6000   731.5000  3079.2068 
 3638.4000   149.0000   153.1620    54.4578     6.0079 52659.1602 61177.1211    59.5600   677.6000   731.0000  3079.2578 
 3638.5000   149.0000   152.9080    54.4703     6.2837 53732.4492 287184.5625  1117.2700   677.6000   730.9000  3079.3088 
 3638.6000   149.0000   153.1620    54.3734     6.5376 45650.4688 287290.0000   507.7200   678.0000   731.0000  3079.3599 
 3638.7000   149.0000   153.1620    54.3516     6.4301 59414.7109 287216.6875   200.8100   677.6000   730.9000  3079.4109 
 3638.8000   149.0000   153.1620    54.4781     6.1547 61870.8398 287045.1250   280.2700   678.0000   731.8000  3079.4619 
 3638.9000   149.0000   152.9080    54.5938     5.6415 47022.9492 259248.3125   416.9000   678.0000   732.5000  3079.5129 
 3639.0000   149.0000   153.1620    54.5844     5.3075 25342.3496 284218.6875   477.7800   678.4000   732.5000  3079.5640 
 3639.1000   149.0000   153.1620    54.5156     5.1009 19136.1992 275693.3750   647.2800   678.6000   733.0000  3079.6155 
 3639.2000   149.0000   152.9080    54.4813     5.2519 17840.3203 86197.8125   472.7500   678.9000   733.2000  3079.6667 
 3639.3000   149.0000   152.9080    54.4813     5.6503 22045.9297 54756.5000   152.3000   678.9000   733.5000  3079.7183 
 3639.4000   149.0000   152.9080    54.4813     6.0006 19476.4805 167983.5000  1053.4900   679.3000   733.5000  3079.7695 
 3639.5000   149.0000   152.9080    54.4781     6.4059 19587.3496 45554.1211   994.1600   679.0000   733.4000  3079.8210 
 3639.6000   149.0000   153.1620    54.4828     6.5076 176125.1250 128920.7969  1230.8400   679.4000   733.8000  3079.8726 
 3639.7000   149.0000   153.1620    54.4672     6.3612 68656.0938 91170.1094  1832.8400   678.9000   733.3000  3079.9238 
 3639.8000   149.0000   153.1620    54.4156     5.9895 170233.6875 56689.1914   883.9100   679.0000   733.8000  3079.9753 
 3639.9000   149.0000   153.1620    54.3469     5.6182 224577.1562 109504.5234   564.7400   679.1000   733.6000  3080.0266 
 3640.0000   149.0000   153.1620    54.2609     5.3804 54006.1016 129873.4688   302.8300   678.8000   733.5000  3080.0781 
 3640.1000   149.0000   152.9080    54.1188     5.3120 213617.8125 107039.8828   329.0900   678.8000   733.4000  3080.1299 
 3640.2000   149.0000   152.9080    53.9828     5.4199 22667.1602 137262.8125   302.6200   678.7000   732.8000  3080.1816 
 3640.3000   149.0000   152.9080    53.9422     5.4593 41988.8398 284583.6875   742.5100   678.7000   732.4000  3080.2334 
 3640.4000   149.0000   153.1620    53.9422     5.4950 129012.9766 285183.4375   299.1100   678.4000   732.4000  3080.2852 
 3640.5000   149.0000   152.9080    53.9797     5.3941 1061653.0000 285587.8125   288.3100   678.2000   732.4000  3080.3369 
 3640.6000   149.0000   152.9080    54.1672     5.2827 234068.0312 285635.0625   315.4200   678.1000   732.2000  3080.3884 
 3640.7000   149.0000   153.1620    54.3969     5.2492 267454.2500 285281.6875   407.2200   678.1000   732.3000  3080.4402 
 3640.8000   149.0000   153.1620    54.4891     5.0544 210168.0938 285237.8125   582.1500   678.0000   732.4000  3080.4919 
 3640.9000   149.0000   152.9080    54.5266     4.9803 1833677.0000 285509.5000   559.0800   677.6000   732.3000  3080.5437 
 3641.0000   149.0000   153.1620    54.5453     4.9943 123782.7500 285712.5625   796.2000   677.3000   730.9000  3080.5955 
 3641.1000   149.0000   153.1620    54.5109     5.0608 272102.1875 285456.5625  1591.2400   676.6000   730.7000  3080.6475 
 3641.2000   149.0000   152.9080    54.4750     5.4144 230301.0938 284592.1875  1890.4301   676.3000   729.7000  3080.6995 
 3641.3000   149.0000   152.9080    54.4500     5.7714 113908.2266 283531.6875  1676.8500   676.2000   729.4000  3080.7517 
 3641.4000   149.0000   152.9080    54.4484     5.9247 79517.8281 224258.3438  1485.4100   675.3000   729.3000  3080.8037 
 3641.5000   149.0000   153.1620    54.4703     6.0293 11425790.0000 156352.8125  1159.5100   675.2000   729.3000  3080.8557 
 3641.6000   149.0000   153.1620    54.5391     6.0914 44719.7305 96524.0312  2570.4500   675.2000   729.2000  3080.9077 
 3641.7000   149.0000   153.1620    54.6188     6.2728 44789.9414 109433.7188  2678.2300   675.4000   729.5000  3080.9597 
 3641.8000   149.0000   152.9080    54.5719     6.7514 34353.5586 145697.3750  2375.6101   675.7000   729.7000  3081.0120 
 3641.9000   149.0000   153.1620    54.4344     7.2410 48103.6914 256269.7500   343.1400   675.7000   729.8000  3081.0640 
 3642.0000   149.0000   153.1620    54.2687     7.5884 37152.1016 284392.8125   345.0000   675.6000   730.0000  3081.1160 
 3642.1000   149.0000   153.1620    54.0750     7.7374 34432.6992 284631.8750   315.3600   675.9000   729.9000  3081.1685 
 3642.2000   149.0000   152.9080    53.9156     7.6006 28528.5703 284787.6875   317.6900   675.7000   729.6000  3081.2209 
 3642.3000   149.0000   152.9080    53.8484     7.4061 31220.0801 278392.6875   409.0900   675.4000   729.7000  3081.2732 
 3642.4000   149.0000   153.1620    53.9125     7.1719 29552.3594 79119.4219   216.4100   675.3000   729.4000  3081.3257 
 3642.5000   149.0000   153.1620    54.0594     6.7505 29026.9902 164272.8438   496.3000   675.3000   729.5000  3081.3782 
 3642.6000   149.0000   152.9080    54.1156     6.4939 21637.2598 112175.1719   549.1500   675.0000   729.6000  3081.4307 
 3642.7000   149.0000   153.1620    53.9156     6.1134 20075.3809 84864.2266   711.8800   675.2000   729.5000  3081.4832 
 3642.8000   149.0000   153.1620    53.5469     5.8407 20648.1504 1690956.7500   533.6500   675.0000   729.3000  3081.5354 
 3642.9000   149.0000   152.9080    53.2859     5.9655 22362.3203 157028.5312  1001.9200   674.9000   729.2000  3081.5879 
 3643.0000   149.0000   152.9080    53.2328     6.0492 37102.4297 549079.0000   235.5800   674.6000   728.9000  3081.6404 
 3643.1000   149.0000   153.1620    53.3187     6.3333 31580.4707 488011.0625   427.9500   674.3000   728.7000  3081.6931 
 3643.2000   149.0000   152.9080    53.5234     6.5655 29393.2109 488092.6875   433.5100   674.4000   728.3000  3081.7458 
 3643.3000   149.0000   153.1620    53.8063     6.5650 58329.6211 488202.8750   308.6100   674.1000   728.2000  3081.7986 
 3643.4000   149.0000   152.9080    54.0625     6.4541 77249.9062 488199.3125   333.3200   674.1000   728.2000  3081.8513 
 3643.5000   149.0000   152.9080    54.2094     6.4487 50476.9414 1067588.7500   508.1100   674.0000   728.0000  3081.9041 
 3643.6000   149.0000   153.1620    54.2328     6.5650 72112.2188 487622.5000   386.6700   674.3000   728.3000  3081.9568 
 3643.7000   149.0000   152.9080    54.2047     6.7653 28203.6504 486686.8750   645.4900   674.3000   728.5000  3082.0095 
 3643.8000   149.0000   152.9080    54.1688     6.9864 28680.8203 486215.7500  1174.5200   674.3000   728.7000  3082.0623 
 3643.9000   149.0000   153.1620    54.1141     6.8866 24784.5508 485320.5000   648.1000   674.4000   728.7000  3082.1150 
 3644.0000   149.0000   153.1620    54.0016     6.6298 37984.6289 484622.0000   628.5700   675.0000   728.6000  3082.1677 
