~Version Information
 VERS.                 1.20:   CWLS log ASCII Standard -VERSION 1.20
 WRAP.                   NO:   One line per depth step
~Well Information Block
#MNEM.UNIT       Data Type    Information
#---------     -----------    ---------------------------
 STRT.M              3532.0000:
 STOP.M              3669.0000:
 STEP.M                 0.1000:
 NULL.               -999.2500:
 APD .    ABOVE PERMANENT DATUM:  53.0
 UWI .     API WELLHOLE NUMBER:  2016633897DD
 BHT .    BOTTOMHOLE TEMPERATURE:  N/A
 BLI .    BOTTOM LOGGED INTERVAL:  3669.0
 BS  .                BIT SIZE:  149.0
 CBD .    CASING BOTTOM DRILLER:  7"
 CBL .    CASING BOTTOM LOGGER:  3532.0
 COMP.            COMPANY NAME:  PNiG "PILA" Sp. Z O.O.
 COUN.                  COUNTY:  MONOKLINA PRZEDSUDECKA
 CS  .         CASING DIAMETER:  3532.0
 DATE.            LOGGING DATE:  14.06.2008
 DFD .    DRILLING FLUID DENSITY:  1.96
 DFL .     DRILLING FLUID LOSS:  2.4
 DFPH.       DRILLING FLUID PH:  9.2
 DFT .     DRILLING FLUID TYPE:  SOLNO-BARYTOWA
 DFV .    DRILLING FLUID VISCOSITY:  N/A
 DMF .       DRILLING MEASURED:  P.TER.
 EGL .    ELEVATION OF GROUND LEVEL:  53.0
 EKB .    ELEVATION OF KELLY BUSHING:  6.0
 ENG2.         ENGINEER 2 NAME:  M.GOLONKA
 ENGI.         ENGINEER 1 NAME:  P.DRAG
 EPD .    ELEVATATION OF PERMANENT DATUM:   
 FL1 .    FIELD LOCATION LINE 1:  m. SLONSK
 FL2 .    FIELD LOCATION LINE 2:  woj. LUBUSKIE
 FL3 .    FIELD LOCATION LINE 3:  woj. wielkopolskie
 FLD .              FIELD NAME:  SLONSK
 HDRT.             HEADER TYPE:  OPNHS
 LMF .       LOG MEASURED FROM:  P.TER.
 LUL .    LOGGING UNIT LOCATION:  TORUN
 MCSS.    MUD CAKE SAMPLE SOURCE:  POMIA
 MCST.    MUDCAKE SAMPLE TEMPERATURE:  66.0
 MFSS.    MUD FILTRATE SAMPLE SOURCE:  POMIA
 MFST.    MUD FILTRATE SAMPLE TEMPERATURE:  65.0
 MRT .    MAXIMUM RECORDED TEMPERATURE:  N/A
 MSS .    SOURCE OF MUD SAMPLE:  Z OBIEGU
 MST .    MUD SAMPLE TEMPERATURE:  68.0
 OS1 .    OTHER SERVICES LINE 1:  DSNII,SDLT
 OS2 .    OTHER SERVICES LINE 2:  GRTFA, FWST,
 OS3 .    OTHER SERVICES LINE 3:  WOT
 OS4 .    OTHER SERVICES LINE 4:   
 OS5 .    OTHER SERVICES LINE 5:   
 PDAT.         PERMANENT DATUM:  POZ. MORZA
 R1  .          REMARKS LINE 1:   POMIARY DOWIAZANO DO GLEBOKOSCI WIERTNICZEJ  BUTA RUR 7" .
 R10 .         REMARKS LINE 10:   
 R2  .          REMARKS LINE 2:   SCT: 12.06.2008  GODZ. 01:00  OBIEG 2X 120 MIN.
 R3  .          REMARKS LINE 3:   POMIARU TEMPERATURY NIE WYKONYWANO.
 RMB .    RESISTIVITY OF MUD - BHT:  N/A
 RMCS.    RESISTIVITY OF MUDCAKE SAMPLE:  0.188
 RMFS.    RESISTIVITY OF MUD FILTRATE SAMPLE:  0.052
 RMS .    RESISTIVITY OF MUD SAMPLE:  0.077
 RUN .            RUN NUMBER 1:  2
 PROV.                   STATE:  POLSKA
 TCS .    TIME CIRCULATION STOPPED:   
 TDD .          DRILLERS DEPTH:  3675.00
 TDL .           LOGGERS DEPTH:  -
 TLI .     TOP LOGGED INTERVAL:  3490.0
 TITLE1.    HEADER TITLE LINE 1:  PR.AKUST.,PR.ELEKTR.
 TITLE2.    HEADER TITLE LINE 2:  (3516)3532.0-3669.0m
 TITLE3.    HEADER TITLE LINE 3:  TVD:3030.97-? m
 TITLE4.    HEADER TITLE LINE 4:  skala 1:500
 WITN.          WITNESS 1 NAME:  A.KULIG
 WELL.               WELL NAME:  SLONSK-1K
 XTP .    MAX. REC TEMP. @ 1 (OPEN HOLE):  N/A
~Parameter Information Block
#MNEM.UNIT       Value        Description
#---------     -----------    ---------------------------
 LUN .                   16107:  LOGGING UNIT NUMBER
~Curve Information Block
#MNEM.UNIT                 API CODE     Curve Description
#---------               -----------    ---------------------------
 DEPT.M                 00 000 000 000:  
 BS  .MM                00 000 000 000:                                         
 CALM.MM                00 000 000 000:                                         
 DT  .US/F              00 000 000 000:  DELTA TIME COMPRESSIVE                 
 GR  .GAPI              00 000 000 000:  NATURAL GAMMA                          
 LLD .OHMM              00 000 000 000:                                         
 LLS .OHMM              00 000 000 000:                                         
 MSFL.OHMM              00 000 000 000:                                         
 TT1 .US                00 000 000 000:                                         
 TT2 .US                00 000 000 000:                                         
 TVD .M                 00 000 000 000:                                         
~A  DEPT        BS         CALM       DT         GR         LLD        LLS        MSFL       TT1        TT2        TVD    
# ...
 3631.0000   149.0000   152.9080    55.8078    24.9061     3.4000     4.3900     5.6000   678.7000   733.5000  3075.5718 
 3631.1000   149.0000   152.9080    54.5563    24.0510     3.5000     4.6600    15.9400   677.3000   732.2000  3075.6206 
 3631.2000   149.0000   152.9080    53.7562    23.5824     3.5200     4.7300     7.0400   675.2000   729.7000  3075.6694 
 3631.3000   149.0000   152.9080    53.5250    23.6176     3.6900     4.9800     0.5600   674.8000   729.0000  3075.7180 
 3631.4000   149.0000   153.1620    53.8828    24.4681     3.8900     5.2600     9.0700   675.5000   727.9000  3075.7668 
 3631.5000   149.0000   153.1620    54.7031    25.4747     3.8900     5.2500     7.2800   676.3000   729.0000  3075.8157 
 3631.6000   149.0000   153.1620    55.4375    25.7439     3.7600     4.9800     2.4900   677.1000   731.1000  3075.8645 
 3631.7000   149.0000   153.1620    55.6562    25.5302     3.7900     4.8400     3.0500   677.1000   731.9000  3075.9133 
 3631.8000   149.0000   152.9080    55.4969    24.5848     4.1100     5.1000     4.3300   675.8000   732.1000  3075.9619 
 3631.9000   149.0000   152.9080    55.1312    23.3784     4.6400     5.6800     4.0500   675.1000   731.3000  3076.0107 
 3632.0000   149.0000   153.1620    54.6141    22.6010     5.1600     6.2600     2.6800   674.4000   730.3000  3076.0596 
 3632.1000   149.0000   153.1620    54.1453    22.3577     5.8500     6.9400     6.0900   671.5000   729.0000  3076.1086 
 3632.2000   149.0000   153.1620    53.8500    22.3954     7.2600     8.4500     7.2600   670.9000   728.0000  3076.1577 
 3632.3000   149.0000   152.9080    53.5797    22.4420     9.2800    10.6400    18.6200   670.8000   724.8000  3076.2070 
 3632.4000   149.0000   152.9080    53.1375    22.4829    12.1800    13.8100    16.5700   671.0000   724.6000  3076.2561 
 3632.5000   149.0000   152.9080    52.4859    22.0211    16.6900    18.7000    14.5700   670.6000   725.0000  3076.3052 
 3632.6000   149.0000   153.1620    51.8094    21.1229    20.4700    22.7800    11.2200   671.3000   725.0000  3076.3542 
 3632.7000   149.0000   152.9080    51.4516    19.9230    24.1200    26.2500    18.8700   671.5000   725.0000  3076.4033 
 3632.8000   149.0000   153.1620    51.5391    18.0777    32.2800    33.7400     9.9300   671.0000   725.3000  3076.4526 
 3632.9000   149.0000   153.1620    51.8531    15.7010    48.0400    48.7300   131.1000   669.6000   725.2000  3076.5017 
 3633.0000   149.0000   152.9080    52.1594    13.1996    73.5600    71.3700   644.6300   669.2000   724.6000  3076.5508 
 3633.1000   149.0000   153.1620    52.4250    10.8900   128.5800   118.8500   443.0300   669.6000   723.5000  3076.6003 
 3633.2000   149.0000   152.9080    52.7734     9.0478   323.4800   277.4300   152.1300   669.4000   722.6000  3076.6497 
 3633.3000   149.0000   152.9080    53.2438     8.0023  1161.2800  1038.9399   324.7800   669.0000   722.8000  3076.6992 
 3633.4000   149.0000   152.9080    53.7141     7.5686  2538.8401  2790.1101   510.8900   668.6000   722.5000  3076.7488 
 3633.5000   149.0000   153.1620    54.0641     7.5257  3456.4600  4002.3501   182.8200   668.5000   722.4000  3076.7983 
 3633.6000   149.0000   153.1620    54.2531     7.6080  3853.5601  4229.0801   542.1700   668.5000   722.3000  3076.8477 
 3633.7000   149.0000   153.1620    54.2562     7.7028  4398.0498  4877.3501   289.1300   668.4000   722.3000  3076.8972 
 3633.8000   149.0000   153.1620    54.1516     7.7137  5993.7998  5960.9902   546.7900   669.1000   722.1000  3076.9468 
 3633.9000   149.0000   153.1620    54.1141     7.4553  7542.8398  6889.0298  1071.6300   670.3000   722.6000  3076.9961 
 3634.0000   149.0000   153.1620    54.1781     7.2360 10412.1104  8903.7197   775.7000   671.2000   724.0000  3077.0457 
 3634.1000   149.0000   153.1620    54.1906     6.8917 12988.2598 13014.7002  1066.7900   672.0000   724.7000  3077.0955 
 3634.2000   149.0000   152.9080    54.1156     6.6594 19745.1191 18963.6191   822.2000   672.7000   725.8000  3077.1453 
 3634.3000   149.0000   152.9080    54.0969     6.6292 24757.2109 62730.8086   366.0100   673.3000   726.1000  3077.1951 
 3634.4000   149.0000   152.9080    54.1531     6.5542 20138.3906 50973.1602   529.7100   673.5000   726.8000  3077.2449 
 3634.5000   149.0000   152.9080    54.1984     6.7486 31612.1504 29894.4102   173.0900   674.2000   727.2000  3077.2949 
 3634.6000   149.0000   153.1620    54.1937     6.8697 26319.7305 32742.5000  1101.2400   674.1000   728.0000  3077.3447 
 3634.7000   149.0000   152.9080    54.2078     6.9366 44172.0508 30930.6602    26.9800   674.6000   728.2000  3077.3945 
 3634.8000   149.0000   152.9080    54.2938     7.2124 69978.3438 36914.0000    14.4400   674.8000   728.7000  3077.4443 
 3634.9000   149.0000   153.1620    54.2891     7.3580 45511.8516 33596.5195    17.9700   675.0000   728.8000  3077.4941 
 3635.0000   149.0000   153.1620    54.0672     7.4526 39737.5117 27921.8809   207.5200   675.0000   728.9000  3077.5439 
 3635.1000   149.0000   152.9080    53.7953     7.6995 32889.4219 35894.2891   132.2200   675.3000   729.1000  3077.5940 
 3635.2000   149.0000   153.1620    53.6500     7.7602 362303.9375 70930.9766 14657.7598   675.4000   729.2000  3077.6440 
 3635.3000   149.0000   153.1620    53.5781     7.5259 16080.8096 25493.0898    27.9900   675.4000   729.6000  3077.6941 
 3635.4000   149.0000   152.9080    53.4969     7.2741 14628.1299 24074.5391   140.6100   675.6000   729.9000  3077.7441 
 3635.5000   149.0000   153.1620    53.4234     6.7754 14136.7900 22002.4199   248.9200   675.7000   730.3000  3077.7942 
 3635.6000   149.0000   152.9080    53.3906     6.1696 20960.3008 27511.4199   528.4200   676.0000   730.1000  3077.8440 
 3635.7000   149.0000   153.1620    53.5016     5.8024 19387.2109 26180.1797   497.1600   676.2000   730.3000  3077.8940 
 3635.8000   149.0000   152.9080    53.7578     5.5943 20070.7402 23897.1504   867.5000   676.1000   730.4000  3077.9441 
 3635.9000   149.0000   152.9080    53.9297     5.6312 35706.4609 35069.8711   525.8700   676.1000   730.5000  3077.9941 
 3636.0000   149.0000   153.1620    53.9531     5.7713 28499.8691 231139.0625   868.5900   675.7000   730.4000  3078.0442 
 3636.1000   149.0000   153.1620    53.9625     6.1358 28514.6191 124417.6094  1813.5200   676.0000   730.2000  3078.0945 
 3636.2000   149.0000   153.1620    54.0203     6.2930 36942.2891 87664.6094  1828.3900   675.6000   729.9000  3078.1448 
 3636.3000   149.0000   152.9080    54.1297     6.2020 38529.7695 56892.8398   431.3100   675.5000   729.8000  3078.1951 
 3636.4000   149.0000   153.1620    54.2250     6.4083 116549.3125 72281.5781   422.8900   675.5000   729.8000  3078.2454 
 3636.5000   149.0000   152.9080    54.2766     6.3382 118916.2734 60962.4688 15009.5400   675.0000   729.8000  3078.2957 
 3636.6000   149.0000   152.9080    54.3234     6.3074 141278.0312 75034.7734   288.0800   676.0000   730.0000  3078.3457 
 3636.7000   149.0000   153.1620    54.3688     6.4753 219511.9688 122600.6719   690.2000   676.2000   729.8000  3078.3960 
 3636.8000   149.0000   152.9080    54.4375     6.3202 56709.5703 76128.2188  1559.4000   676.8000   730.2000  3078.4463 
 3636.9000   149.0000   152.9080    54.4938     6.1707 62947.3906 187724.3750   396.5400   676.8000   730.7000  3078.4966 
 3637.0000   149.0000   153.1620    54.4031     6.1795 48167.8008 285212.5000   953.4800   677.4000   731.4000  3078.5469 
 3637.1000   149.0000   153.1620    54.1312     6.1938 59460.0312 285583.6250   739.4800   677.7000   731.9000  3078.5977 
 3637.2000   149.0000   153.1620    53.9141     6.1630 42657.5508 284471.7500   267.3700   678.0000   732.2000  3078.6482 
 3637.3000   149.0000   153.1620    53.9375     6.3100 139514.6250 283541.7500  1664.6700   678.4000   732.5000  3078.6990 
 3637.4000   149.0000   152.9080    54.0172     6.3213 836815.8750 284437.0625   752.5200   678.6000   732.6000  3078.7495 
 3637.5000   149.0000   152.9080    54.0672     6.2503 96217.9062 283951.6875  1422.8400   678.6000   733.0000  3078.8003 
