~Version Information
 VERS.                 1.20:   CWLS log ASCII Standard -VERSION 1.20
 WRAP.                   NO:   One line per depth step
~Well Information Block
#MNEM.UNIT       Data Type    Information
#---------     -----------    ---------------------------
 STRT.M              3532.0000:
 STOP.M              3669.0000:
 STEP.M                 0.1000:
 NULL.               -999.2500:
 APD .    ABOVE PERMANENT DATUM:  53.0
 UWI .     API WELLHOLE NUMBER:  2016633897DD
 BHT .    BOTTOMHOLE TEMPERATURE:  N/A
 BLI .    BOTTOM LOGGED INTERVAL:  3669.0
 BS  .                BIT SIZE:  149.0
 CBD .    CASING BOTTOM DRILLER:  7"
 CBL .    CASING BOTTOM LOGGER:  3532.0
 COMP.            COMPANY NAME:  PNiG "PILA" Sp. Z O.O.
 COUN.                  COUNTY:  MONOKLINA PRZEDSUDECKA
 CS  .         CASING DIAMETER:  3532.0
 DATE.            LOGGING DATE:  14.06.2008
 DFD .    DRILLING FLUID DENSITY:  1.96
 DFL .     DRILLING FLUID LOSS:  2.4
 DFPH.       DRILLING FLUID PH:  9.2
 DFT .     DRILLING FLUID TYPE:  SOLNO-BARYTOWA
 DFV .    DRILLING FLUID VISCOSITY:  N/A
 DMF .       DRILLING MEASURED:  P.TER.
 EGL .    ELEVATION OF GROUND LEVEL:  53.0
 EKB .    ELEVATION OF KELLY BUSHING:  6.0
 ENG2.         ENGINEER 2 NAME:  M.GOLONKA
 ENGI.         ENGINEER 1 NAME:  P.DRAG
 EPD .    ELEVATATION OF PERMANENT DATUM:   
 FL1 .    FIELD LOCATION LINE 1:  m. SLONSK
 FL2 .    FIELD LOCATION LINE 2:  woj. LUBUSKIE
 FL3 .    FIELD LOCATION LINE 3:  woj. wielkopolskie
 FLD .              FIELD NAME:  SLONSK
 HDRT.             HEADER TYPE:  OPNHS
 LMF .       LOG MEASURED FROM:  P.TER.
 LUL .    LOGGING UNIT LOCATION:  TORUN
 MCSS.    MUD CAKE SAMPLE SOURCE:  POMIA
 MCST.    MUDCAKE SAMPLE TEMPERATURE:  66.0
 MFSS.    MUD FILTRATE SAMPLE SOURCE:  POMIA
 MFST.    MUD FILTRATE SAMPLE TEMPERATURE:  65.0
 MRT .    MAXIMUM RECORDED TEMPERATURE:  N/A
 MSS .    SOURCE OF MUD SAMPLE:  Z OBIEGU
 MST .    MUD SAMPLE TEMPERATURE:  68.0
 OS1 .    OTHER SERVICES LINE 1:  DSNII,SDLT
 OS2 .    OTHER SERVICES LINE 2:  GRTFA, FWST,
 OS3 .    OTHER SERVICES LINE 3:  WOT
 OS4 .    OTHER SERVICES LINE 4:   
 OS5 .    OTHER SERVICES LINE 5:   
 PDAT.         PERMANENT DATUM:  POZ. MORZA
 R1  .          REMARKS LINE 1:   POMIARY DOWIAZANO DO GLEBOKOSCI WIERTNICZEJ  BUTA RUR 7" .
 R10 .         REMARKS LINE 10:   
 R2  .          REMARKS LINE 2:   SCT: 12.06.2008  GODZ. 01:00  OBIEG 2X 120 MIN.
 R3  .          REMARKS LINE 3:   POMIARU TEMPERATURY NIE WYKONYWANO.
 RMB .    RESISTIVITY OF MUD - BHT:  N/A
 RMCS.    RESISTIVITY OF MUDCAKE SAMPLE:  0.188
 RMFS.    RESISTIVITY OF MUD FILTRATE SAMPLE:  0.052
 RMS .    RESISTIVITY OF MUD SAMPLE:  0.077
 RUN .            RUN NUMBER 1:  2
 PROV.                   STATE:  POLSKA
 TCS .    TIME CIRCULATION STOPPED:   
 TDD .          DRILLERS DEPTH:  3675.00
 TDL .           LOGGERS DEPTH:  -
 TLI .     TOP LOGGED INTERVAL:  3490.0
 TITLE1.    HEADER TITLE LINE 1:  PR.AKUST.,PR.ELEKTR.
 TITLE2.    HEADER TITLE LINE 2:  (3516)3532.0-3669.0m
 TITLE3.    HEADER TITLE LINE 3:  TVD:3030.97-? m
 TITLE4.    HEADER TITLE LINE 4:  skala 1:500
 WITN.          WITNESS 1 NAME:  A.KULIG
 WELL.               WELL NAME:  SLONSK-1K
 XTP .    MAX. REC TEMP. @ 1 (OPEN HOLE):  N/A
~Parameter Information Block
#MNEM.UNIT       Value        Description
#---------     -----------    ---------------------------
 LUN .                   16107:  LOGGING UNIT NUMBER
~Curve Information Block
#MNEM.UNIT                 API CODE     Curve Description
#---------               -----------    ---------------------------
 DEPT.M                 00 000 000 000:  
 BS  .MM                00 000 000 000:                                         
 CALM.MM                00 000 000 000:                                         
 DT  .US/F              00 000 000 000:  DELTA TIME COMPRESSIVE                 
 GR  .GAPI              00 000 000 000:  NATURAL GAMMA                          
 LLD .OHMM              00 000 000 000:                                         
 LLS .OHMM              00 000 000 000:                                         
 MSFL.OHMM              00 000 000 000:                                         
 TT1 .US                00 000 000 000:                                         
 TT2 .US                00 000 000 000:                                         
 TVD .M                 00 000 000 000:                                         
~A  DEPT        BS         CALM       DT         GR         LLD        LLS        MSFL       TT1        TT2        TVD    
# ...
 3565.0000   149.0000   149.8600    62.4750    22.9842     2.3500     0.9700     0.9900   803.9000   867.5000  3045.7031 
 3565.1000   149.0000   149.8600    63.9641    21.2235     2.3500     0.9500     1.0400   806.1000   870.0000  3045.7480 
 3565.2000   149.0000   149.6060    66.3547    19.4079     2.4800     0.9300     0.3400   811.1000   872.5000  3045.7930 
 3565.3000   149.0000   149.8600    69.9297    18.4593     2.7300     1.0100     0.2200   814.4000   875.0000  3045.8379 
 3565.4000   149.0000   149.8600    73.3156    18.2038     2.6700     1.0300     0.2300   816.0000   877.4000  3045.8828 
 3565.5000   149.0000   149.8600    74.7484    18.0241     2.4100     0.9300     0.2400   816.3000   884.1000  3045.9280 
 3565.6000   149.0000   149.8600    74.1297    18.0690     2.1800     0.7900     0.2300   816.0000   886.2000  3045.9729 
 3565.7000   149.0000   149.8600    72.1141    18.1788     2.1000     0.7300     0.2500   816.2000   886.1000  3046.0178 
 3565.8000   149.0000   149.6060    70.0188    18.1589     2.1200     0.7200     0.4300   819.3000   885.6000  3046.0627 
 3565.9000   149.0000   149.8600    68.3656    18.5217     2.1600     0.7300     0.3600   819.9000   886.9000  3046.1077 
 3566.0000   149.0000   149.6060    66.9703    18.9319     2.2200     0.7500     1.0900   821.6000   888.0000  3046.1526 
 3566.1000   149.0000   149.8600    66.2094    18.8154     2.1700     0.7200     0.3000   826.5000   891.9000  3046.1975 
 3566.2000   149.0000   149.8600    66.1984    18.1797     2.0700     0.6800     0.2700   829.5000   894.1000  3046.2424 
 3566.3000   149.0000   149.8600    67.0563    17.3975     1.8700     0.6000     0.2400   833.4000   895.8000  3046.2874 
 3566.4000   149.0000   149.8600    68.5891    16.5754     1.7300     0.5400     0.2200   835.9000   897.4000  3046.3323 
 3566.5000   149.0000   149.8600    69.9500    16.0969     1.6600     0.5000     0.4800   835.6000   901.8000  3046.3772 
 3566.6000   149.0000   149.8600    70.2703    16.7593     1.6500     0.4800     0.7700   836.6000   900.8000  3046.4221 
 3566.7000   149.0000   149.8600    68.9750    17.3418     1.7900     0.4900     1.1800   832.3000   899.0000  3046.4670 
 3566.8000   149.0000   149.8600    66.9953    18.5733     2.0800     0.5600     0.5700   823.0000   896.3000  3046.5120 
 3566.9000   149.0000   149.8600    65.6781    20.4422     2.4100     0.6600     0.4400   821.0000   890.0000  3046.5569 
 3567.0000   149.0000   149.8600    65.0422    22.0065     2.5400     0.7400     0.3800   818.9000   890.2000  3046.6018 
 3567.1000   149.0000   149.8600    65.1250    23.8704     2.4000     0.7100     0.3500   815.5000   883.6000  3046.6467 
 3567.2000   149.0000   149.8600    66.1266    24.9055     2.2700     0.6600     0.3200   813.6000   880.6000  3046.6914 
 3567.3000   149.0000   149.8600    67.7859    24.4737     2.2000     0.6400     0.2900   811.5000   879.0000  3046.7363 
 3567.4000   149.0000   149.8600    69.7281    23.0358     2.1400     0.6400     0.3000   810.9000   877.3000  3046.7812 
 3567.5000   149.0000   149.6060    71.1719    21.0238     2.0600     0.6300     0.4600   811.2000   878.4000  3046.8262 
 3567.6000   149.0000   149.6060    71.4641    19.2664     2.0200     0.6000     0.7400   812.1000   877.8000  3046.8708 
 3567.7000   149.0000   149.6060    70.5672    18.9702     2.1000     0.6000     0.2600   812.9000   880.6000  3046.9158 
 3567.8000   149.0000   149.6060    69.4203    20.3415     2.3600     0.6700     0.2300   808.5000   883.0000  3046.9607 
 3567.9000   149.0000   149.8600    69.3156    22.3019     2.4900     0.7300     0.2800   808.8000   881.1000  3047.0054 
 3568.0000   149.0000   149.6060    69.9203    24.6517     2.4500     0.7100     0.2500   809.0000   881.5000  3047.0503 
 3568.1000   149.0000   149.8600    70.0797    26.2336     2.3100     0.6700     0.2700   811.2000   879.1000  3047.0952 
 3568.2000   149.0000   149.8600    69.4969    26.3201     2.3000     0.6700     0.2400   814.5000   876.5000  3047.1399 
 3568.3000   149.0000   149.8600    68.6172    25.8674     2.3500     0.7000     0.2400   814.8000   874.7000  3047.1848 
 3568.4000   149.0000   149.8600    67.8609    24.3763     2.3500     0.7100     0.8100   814.1000   873.8000  3047.2295 
 3568.5000   149.0000   149.8600    67.0672    22.8436     2.2800     0.7000     0.7500   810.0000   875.5000  3047.2744 
 3568.6000   149.0000   149.8600    66.1516    21.6254     2.2600     0.6500     0.3200   806.6000   875.7000  3047.3191 
 3568.7000   149.0000   149.8600    65.8031    20.7517     2.4300     0.6800     0.4500   807.2000   876.0000  3047.3640 
 3568.8000   149.0000   149.8600    66.1531    20.6052     2.5100     0.7200     0.6400   801.4000   874.1000  3047.4087 
 3568.9000   149.0000   149.8600    66.3156    20.4813     2.4200     0.7200     0.9400   803.5000   868.6000  3047.4536 
 3569.0000   149.0000   149.8600    65.8969    20.7517     2.3300     0.7000     0.7100   800.8000   864.7000  3047.4983 
 3569.1000   149.0000   149.8600    65.4328    20.7550     2.3500     0.7100     0.9600   798.0000   862.2000  3047.5430 
 3569.2000   149.0000   149.8600    65.7000    20.9214     2.4000     0.7500     0.4300   795.2000   861.3000  3047.5879 
 3569.3000   149.0000   149.8600    66.6891    21.1112     2.2400     0.7300     1.2600   793.0000   861.7000  3047.6326 
 3569.4000   149.0000   149.8600    67.6422    20.9065     2.0700     0.6700     1.0800   790.9000   859.1000  3047.6775 
 3569.5000   149.0000   149.6060    68.2906    20.9980     1.9800     0.6300     0.3900   790.2000   857.4000  3047.7222 
 3569.6000   149.0000   149.8600    69.1984    20.4388     1.9200     0.6300     0.8500   789.1000   856.2000  3047.7668 
 3569.7000   149.0000   149.8600    70.7453    19.7332     1.8800     0.6300     1.1700   787.6000   854.3000  3047.8118 
 3569.8000   149.0000   149.8600    72.0500    19.3663     1.8100     0.6100     0.3000   783.8000   850.9000  3047.8564 
 3569.9000   149.0000   149.8600    72.2000    18.7988     1.8900     0.6400     0.3400   782.5000   848.7000  3047.9014 
 3570.0000   149.0000   149.8600    71.0203    18.7089     2.0400     0.7100     0.5900   783.2000   847.7000  3047.9460 
 3570.1000   149.0000   149.8600    68.2703    18.8587     2.3500     0.8200     0.7800   781.1000   850.0000  3047.9910 
 3570.2000   149.0000   149.8600    64.6203    18.8254     2.6400     0.9700     0.5000   782.4000   852.1000  3048.0356 
 3570.3000   149.0000   149.8600    61.6250    19.0084     2.8700     1.0800     0.3600   783.5000   849.7000  3048.0806 
 3570.4000   149.0000   149.8600    60.3328    19.1915     3.0400     1.1200     0.7500   784.6000   848.5000  3048.1252 
 3570.5000   149.0000   149.8600    60.9531    20.0652     3.1800     1.1800     4.2800   784.0000   849.2000  3048.1702 
 3570.6000   149.0000   149.8600    62.0484    20.7226     3.0800     1.1500     7.5100   780.8000   851.5000  3048.2148 
 3570.7000   149.0000   149.8600    61.8031    20.9772     2.8700     1.0800     4.2600   782.9000   851.7000  3048.2598 
 3570.8000   149.0000   149.8600    60.6406    21.4864     2.4300     0.9400     0.2800   783.6000   852.7000  3048.3044 
 3570.9000   149.0000   149.8600    60.8750    21.0088     2.1200     0.7700     0.2100   785.1000   854.3000  3048.3494 
 3571.0000   149.0000   149.8600    63.7141    21.0488     2.1500     0.7500     0.2200   785.0000   851.5000  3048.3940 
 3571.1000   149.0000   149.8600    67.2484    21.6162     2.1900     0.7800     0.3200   783.2000   850.3000  3048.4390 
 3571.2000   149.0000   149.8600    68.8766    21.7161     2.2200     0.8000     1.6000   778.1000   846.6000  3048.4836 
 3571.3000   149.0000   149.8600    67.5547    22.4350     2.2200     0.8400     1.6900   776.4000   844.5000  3048.5286 
 3571.4000   149.0000   149.6060    64.5891    22.8810     2.4000     0.8800     1.2800   771.4000   842.2000  3048.5732 
 3571.5000   149.0000   149.8600    62.4406    23.1823     2.8700     1.0600     2.4900   772.8000   839.8000  3048.6182 
