~Version Information
 VERS.                 1.20:   CWLS log ASCII Standard -VERSION 1.20
 WRAP.                   NO:   One line per depth step
~Well Information Block
#MNEM.UNIT       Data Type    Information
#---------     -----------    ---------------------------
 STRT.M              3532.0000:
 STOP.M              3669.0000:
 STEP.M                 0.1000:
 NULL.               -999.2500:
 APD .    ABOVE PERMANENT DATUM:  53.0
 UWI .     API WELLHOLE NUMBER:  2016633897DD
 BHT .    BOTTOMHOLE TEMPERATURE:  N/A
 BLI .    BOTTOM LOGGED INTERVAL:  3669.0
 BS  .                BIT SIZE:  149.0
 CBD .    CASING BOTTOM DRILLER:  7"
 CBL .    CASING BOTTOM LOGGER:  3532.0
 COMP.            COMPANY NAME:  PNiG "PILA" Sp. Z O.O.
 COUN.                  COUNTY:  MONOKLINA PRZEDSUDECKA
 CS  .         CASING DIAMETER:  3532.0
 DATE.            LOGGING DATE:  14.06.2008
 DFD .    DRILLING FLUID DENSITY:  1.96
 DFL .     DRILLING FLUID LOSS:  2.4
 DFPH.       DRILLING FLUID PH:  9.2
 DFT .     DRILLING FLUID TYPE:  SOLNO-BARYTOWA
 DFV .    DRILLING FLUID VISCOSITY:  N/A
 DMF .       DRILLING MEASURED:  P.TER.
 EGL .    ELEVATION OF GROUND LEVEL:  53.0
 EKB .    ELEVATION OF KELLY BUSHING:  6.0
 ENG2.         ENGINEER 2 NAME:  M.GOLONKA
 ENGI.         ENGINEER 1 NAME:  P.DRAG
 EPD .    ELEVATATION OF PERMANENT DATUM:   
 FL1 .    FIELD LOCATION LINE 1:  m. SLONSK
 FL2 .    FIELD LOCATION LINE 2:  woj. LUBUSKIE
 FL3 .    FIELD LOCATION LINE 3:  woj. wielkopolskie
 FLD .              FIELD NAME:  SLONSK
 HDRT.             HEADER TYPE:  OPNHS
 LMF .       LOG MEASURED FROM:  P.TER.
 LUL .    LOGGING UNIT LOCATION:  TORUN
 MCSS.    MUD CAKE SAMPLE SOURCE:  POMIA
 MCST.    MUDCAKE SAMPLE TEMPERATURE:  66.0
 MFSS.    MUD FILTRATE SAMPLE SOURCE:  POMIA
 MFST.    MUD FILTRATE SAMPLE TEMPERATURE:  65.0
 MRT .    MAXIMUM RECORDED TEMPERATURE:  N/A
 MSS .    SOURCE OF MUD SAMPLE:  Z OBIEGU
 MST .    MUD SAMPLE TEMPERATURE:  68.0
 OS1 .    OTHER SERVICES LINE 1:  DSNII,SDLT
 OS2 .    OTHER SERVICES LINE 2:  GRTFA, FWST,
 OS3 .    OTHER SERVICES LINE 3:  WOT
 OS4 .    OTHER SERVICES LINE 4:   
 OS5 .    OTHER SERVICES LINE 5:   
 PDAT.         PERMANENT DATUM:  POZ. MORZA
 R1  .          REMARKS LINE 1:   POMIARY DOWIAZANO DO GLEBOKOSCI WIERTNICZEJ  BUTA RUR 7" .
 R10 .         REMARKS LINE 10:   
 R2  .          REMARKS LINE 2:   SCT: 12.06.2008  GODZ. 01:00  OBIEG 2X 120 MIN.
 R3  .          REMARKS LINE 3:   POMIARU TEMPERATURY NIE WYKONYWANO.
 RMB .    RESISTIVITY OF MUD - BHT:  N/A
 RMCS.    RESISTIVITY OF MUDCAKE SAMPLE:  0.188
 RMFS.    RESISTIVITY OF MUD FILTRATE SAMPLE:  0.052
 RMS .    RESISTIVITY OF MUD SAMPLE:  0.077
 RUN .            RUN NUMBER 1:  2
 PROV.                   STATE:  POLSKA
 TCS .    TIME CIRCULATION STOPPED:   
 TDD .          DRILLERS DEPTH:  3675.00
 TDL .           LOGGERS DEPTH:  -
 TLI .     TOP LOGGED INTERVAL:  3490.0
 TITLE1.    HEADER TITLE LINE 1:  PR.AKUST.,PR.ELEKTR.
 TITLE2.    HEADER TITLE LINE 2:  (3516)3532.0-3669.0m
 TITLE3.    HEADER TITLE LINE 3:  TVD:3030.97-? m
 TITLE4.    HEADER TITLE LINE 4:  skala 1:500
 WITN.          WITNESS 1 NAME:  A.KULIG
 WELL.               WELL NAME:  SLONSK-1K
 XTP .    MAX. REC TEMP. @ 1 (OPEN HOLE):  N/A
~Parameter Information Block
#MNEM.UNIT       Value        Description
#---------     -----------    ---------------------------
 LUN .                   16107:  LOGGING UNIT NUMBER
~Curve Information Block
#MNEM.UNIT                 API CODE     Curve Description
#---------               -----------    ---------------------------
 DEPT.M                 00 000 000 000:  
 BS  .MM                00 000 000 000:                                         
 CALM.MM                00 000 000 000:                                         
 DT  .US/F              00 000 000 000:  DELTA TIME COMPRESSIVE                 
 GR  .GAPI              00 000 000 000:  NATURAL GAMMA                          
 LLD .OHMM              00 000 000 000:                                         
 LLS .OHMM              00 000 000 000:                                         
 MSFL.OHMM              00 000 000 000:                                         
 TT1 .US                00 000 000 000:                                         
 TT2 .US                00 000 000 000:                                         
 TVD .M                 00 000 000 000:                                         
~A  DEPT        BS         CALM       DT         GR         LLD        LLS        MSFL       TT1        TT2        TVD    
# ...
 3591.4000   149.0000   149.8600    58.3016    18.9457     3.8300     3.2200     0.7600   715.2000   767.6000  3057.4116 
 3591.5000   149.0000   149.8600    56.8344    18.4241     4.6000     3.8700     1.0300   715.3000   768.6000  3057.4556 
 3591.6000   149.0000   149.6060    56.4078    18.6888     4.5800     3.9500     0.9000   715.1000   770.2000  3057.4993 
 3591.7000   149.0000   149.8600    56.6766    19.1698     3.9500     3.3800     1.9900   715.2000   772.8000  3057.5432 
 3591.8000   149.0000   149.8600    57.4109    19.1308     3.3600     2.8000    10.2400   717.3000   774.0000  3057.5869 
 3591.9000   149.0000   149.6060    58.1266    19.3739     2.9400     2.3900     1.6000   718.8000   775.2000  3057.6309 
 3592.0000   149.0000   149.8600    58.4422    19.3458     2.7800     2.2100     0.2000   720.4000   775.8000  3057.6746 
 3592.1000   149.0000   149.8600    59.0484    19.4928     2.6800     2.1000     0.3400   720.2000   776.1000  3057.7185 
 3592.2000   149.0000   149.6060    60.3828    20.1899     2.7000     2.0200     0.6100   718.1000   775.4000  3057.7622 
 3592.3000   149.0000   149.6060    61.4437    20.8625     3.0400     2.1600     4.9500   715.1000   774.6000  3057.8062 
 3592.4000   149.0000   149.8600    61.2313    20.8552     3.7900     2.6400     2.7400   709.0000   769.9000  3057.8501 
 3592.5000   149.0000   149.8600    60.0891    20.9047     4.9000     3.5100     4.2900   706.8000   766.5000  3057.8940 
 3592.6000   149.0000   149.6060    59.3172    20.4453     6.0700     4.5400     6.4700   705.4000   763.5000  3057.9377 
 3592.7000   149.0000   149.8600    59.2641    19.5837     6.7900     5.2900     4.1500   703.3000   763.0000  3057.9817 
 3592.8000   149.0000   149.8600    59.1453    19.2222     6.6500     5.3100     1.7000   703.9000   763.2000  3058.0256 
 3592.9000   149.0000   149.8600    58.6188    18.3741     6.4200     5.1300     1.8900   704.5000   763.7000  3058.0693 
 3593.0000   149.0000   149.8600    57.8609    17.7919     6.3800     5.0800     2.0000   705.7000   761.5000  3058.1133 
 3593.1000   149.0000   149.6060    57.0516    17.4641     6.3100     4.9700     2.0700   707.6000   761.8000  3058.1572 
 3593.2000   149.0000   149.6060    56.4219    17.1579     6.2500     4.9100     1.8000   707.6000   761.6000  3058.2009 
 3593.3000   149.0000   149.8600    56.0938    17.0938     6.1600     4.8000     4.0300   707.4000   762.1000  3058.2449 
 3593.4000   149.0000   149.6060    56.0781    16.8808     6.3100     4.9000     4.5200   710.3000   764.0000  3058.2888 
 3593.5000   149.0000   149.8600    56.3625    16.3948     6.9500     5.4000     4.8100   707.6000   765.1000  3058.3328 
 3593.6000   149.0000   149.8600    56.7734    15.8739     7.8800     6.2000     5.6600   705.2000   768.1000  3058.3765 
 3593.7000   149.0000   149.6060    56.9047    15.4005     8.5600     6.6500     3.5000   704.5000   762.6000  3058.4204 
 3593.8000   149.0000   149.8600    56.5672    15.3406     9.6100     7.5000     4.2800   704.1000   762.7000  3058.4644 
 3593.9000   149.0000   149.8600    56.1359    16.2259    10.9400     8.6000     4.1600   703.1000   762.0000  3058.5081 
 3594.0000   149.0000   149.6060    55.9688    17.1412    12.6400    10.1400     3.6600   704.1000   762.0000  3058.5520 
 3594.1000   149.0000   149.8600    56.1031    18.2404    13.7300    11.0900     3.2400   703.2000   759.6000  3058.5959 
 3594.2000   149.0000   149.8600    56.3500    18.8861    14.3700    11.6200     5.5800   702.6000   758.7000  3058.6399 
 3594.3000   149.0000   149.8600    56.4281    18.4443    15.1100    12.1500     9.9200   700.3000   757.2000  3058.6838 
 3594.4000   149.0000   149.8600    56.7062    18.0374    15.3000    12.3100    13.5800   697.6000   758.9000  3058.7278 
 3594.5000   149.0000   149.8600    57.7141    17.9925    15.4400    12.2800     8.6400   698.6000   760.0000  3058.7717 
 3594.6000   149.0000   149.8600    58.9656    18.0557    15.2500    12.0800    15.2000   699.6000   760.5000  3058.8157 
 3594.7000   149.0000   149.8600    59.5172    18.8462    15.1300    11.9000     8.8500   703.0000   760.9000  3058.8596 
 3594.8000   149.0000   149.8600    58.8563    19.6334    14.9200    11.6900    10.2000   703.7000   762.3000  3058.9036 
 3594.9000   149.0000   149.6060    57.3969    19.7016    13.2600    10.4100     4.8700   705.1000   766.0000  3058.9475 
 3595.0000   149.0000   149.6060    55.9500    20.0519    11.5700     9.2500     6.6100   706.7000   767.1000  3058.9915 
 3595.1000   149.0000   149.8600    55.3594    19.9129     9.1600     7.4800     4.6900   712.1000   773.9000  3059.0356 
 3595.2000   149.0000   149.6060    56.2000    19.7682     7.6400     6.2500    11.6700   714.7000   776.3000  3059.0796 
 3595.3000   149.0000   149.8600    58.0734    19.9928     6.7400     5.5100     8.3700   717.2000   778.0000  3059.1238 
 3595.4000   149.0000   149.8600    59.7906    20.1751     6.1600     5.0800    10.2200   720.3000   778.2000  3059.1677 
 3595.5000   149.0000   149.6060    60.2016    21.0138     5.9600     4.9100     1.9100   720.4000   777.3000  3059.2119 
 3595.6000   149.0000   149.8600    59.2375    21.8476     6.1500     5.0600     1.7200   720.0000   782.3000  3059.2559 
 3595.7000   149.0000   149.8600    57.6766    22.7188     7.2400     5.8100     1.4800   720.5000   786.6000  3059.3000 
 3595.8000   149.0000   149.6060    56.4813    23.3603     8.8200     6.9600    13.4500   723.8000   785.3000  3059.3440 
 3595.9000   149.0000   149.8600    55.8844    23.7348     9.4300     7.3600    20.2600   726.9000   789.9000  3059.3882 
 3596.0000   149.0000   149.8600    55.3656    24.4212     8.0000     6.0500     3.7600   728.3000   789.2000  3059.4321 
 3596.1000   149.0000   149.8600    54.7828    24.4961     6.2600     4.8000     5.4800   731.8000   789.3000  3059.4763 
 3596.2000   149.0000   149.8600    54.6922    24.3738     4.6900     3.4800    17.9100   731.3000   789.5000  3059.5205 
 3596.3000   149.0000   149.6060    56.0094    23.7947     3.7600     2.8600    13.8200   732.7000   790.1000  3059.5649 
 3596.4000   149.0000   149.8600    58.3297    22.3668     2.9200     2.2700     1.2800   734.5000   790.8000  3059.6091 
 3596.5000   149.0000   149.8600    60.1203    21.0687     2.3900     1.8500     0.9100   735.4000   794.9000  3059.6533 
 3596.6000   149.0000   149.8600    60.9359    20.1551     2.0700     1.5400     2.4600   736.5000   801.0000  3059.6975 
 3596.7000   149.0000   149.8600    61.3875    19.4411     1.9800     1.4200     0.6900   735.5000   799.9000  3059.7417 
 3596.8000   149.0000   149.8600    62.4828    19.0293     2.0100     1.3700     0.4400   736.7000   798.4000  3059.7861 
 3596.9000   149.0000   149.8600    64.4391    18.9444     2.1900     1.5000     0.8600   736.3000   796.8000  3059.8303 
 3597.0000   149.0000   149.6060    66.0156    18.6432     2.2400     1.5700     3.9900   738.2000   797.3000  3059.8745 
 3597.1000   149.0000   149.8600    65.9391    18.4301     2.0400     1.4200     2.1900   741.2000   797.9000  3059.9189 
 3597.2000   149.0000   149.8600    64.0656    18.3969     2.0200     1.3600     1.7200   743.0000   798.8000  3059.9631 
 3597.3000   149.0000   149.8600    61.7844    18.2388     2.1700     1.5300     1.5600   742.3000   798.9000  3060.0076 
 3597.4000   149.0000   149.8600    61.1781    18.1872     2.2700     1.6300     1.3900   742.8000   798.0000  3060.0518 
 3597.5000   149.0000   149.8600    62.9141    18.1506     2.3600     1.7700     0.7300   743.9000   797.6000  3060.0962 
 3597.6000   149.0000   149.8600    65.5188    18.1181     2.4600     1.8000     1.5600   747.3000   799.1000  3060.1406 
 3597.7000   149.0000   149.8600    67.6125    18.0033     2.8000     1.9100     2.4600   744.1000   800.8000  3060.1848 
 3597.8000   149.0000   149.6060    68.2953    17.7287     3.8800     2.4500     2.3300   742.7000   803.6000  3060.2292 
 3597.9000   149.0000   149.8600    66.9766    17.3592     5.4300     3.5800     2.0300   741.7000   799.9000  3060.2734 
