~Version Information
 VERS.                 1.20:   CWLS log ASCII Standard -VERSION 1.20
 WRAP.                   NO:   One line per depth step
~Well Information Block
#MNEM.UNIT       Data Type    Information
#---------     -----------    ---------------------------
 STRT.M              3532.0000:
 STOP.M              3669.0000:
 STEP.M                 0.1000:
 NULL.               -999.2500:
 APD .    ABOVE PERMANENT DATUM:  53.0
 UWI .     API WELLHOLE NUMBER:  2016633897DD
 BHT .    BOTTOMHOLE TEMPERATURE:  N/A
 BLI .    BOTTOM LOGGED INTERVAL:  3669.0
 BS  .                BIT SIZE:  149.0
 CBD .    CASING BOTTOM DRILLER:  7"
 CBL .    CASING BOTTOM LOGGER:  3532.0
 COMP.            COMPANY NAME:  PNiG "PILA" Sp. Z O.O.
 COUN.                  COUNTY:  MONOKLINA PRZEDSUDECKA
 CS  .         CASING DIAMETER:  3532.0
 DATE.            LOGGING DATE:  14.06.2008
 DFD .    DRILLING FLUID DENSITY:  1.96
 DFL .     DRILLING FLUID LOSS:  2.4
 DFPH.       DRILLING FLUID PH:  9.2
 DFT .     DRILLING FLUID TYPE:  SOLNO-BARYTOWA
 DFV .    DRILLING FLUID VISCOSITY:  N/A
 DMF .       DRILLING MEASURED:  P.TER.
 EGL .    ELEVATION OF GROUND LEVEL:  53.0
 EKB .    ELEVATION OF KELLY BUSHING:  6.0
 ENG2.         ENGINEER 2 NAME:  M.GOLONKA
 ENGI.         ENGINEER 1 NAME:  P.DRAG
 EPD .    ELEVATATION OF PERMANENT DATUM:   
 FL1 .    FIELD LOCATION LINE 1:  m. SLONSK
 FL2 .    FIELD LOCATION LINE 2:  woj. LUBUSKIE
 FL3 .    FIELD LOCATION LINE 3:  woj. wielkopolskie
 FLD .              FIELD NAME:  SLONSK
 HDRT.             HEADER TYPE:  OPNHS
 LMF .       LOG MEASURED FROM:  P.TER.
 LUL .    LOGGING UNIT LOCATION:  TORUN
 MCSS.    MUD CAKE SAMPLE SOURCE:  POMIA
 MCST.    MUDCAKE SAMPLE TEMPERATURE:  66.0
 MFSS.    MUD FILTRATE SAMPLE SOURCE:  POMIA
 MFST.    MUD FILTRATE SAMPLE TEMPERATURE:  65.0
 MRT .    MAXIMUM RECORDED TEMPERATURE:  N/A
 MSS .    SOURCE OF MUD SAMPLE:  Z OBIEGU
 MST .    MUD SAMPLE TEMPERATURE:  68.0
 OS1 .    OTHER SERVICES LINE 1:  DSNII,SDLT
 OS2 .    OTHER SERVICES LINE 2:  GRTFA, FWST,
 OS3 .    OTHER SERVICES LINE 3:  WOT
 OS4 .    OTHER SERVICES LINE 4:   
 OS5 .    OTHER SERVICES LINE 5:   
 PDAT.         PERMANENT DATUM:  POZ. MORZA
 R1  .          REMARKS LINE 1:   POMIARY DOWIAZANO DO GLEBOKOSCI WIERTNICZEJ  BUTA RUR 7" .
 R10 .         REMARKS LINE 10:   
 R2  .          REMARKS LINE 2:   SCT: 12.06.2008  GODZ. 01:00  OBIEG 2X 120 MIN.
 R3  .          REMARKS LINE 3:   POMIARU TEMPERATURY NIE WYKONYWANO.
 RMB .    RESISTIVITY OF MUD - BHT:  N/A
 RMCS.    RESISTIVITY OF MUDCAKE SAMPLE:  0.188
 RMFS.    RESISTIVITY OF MUD FILTRATE SAMPLE:  0.052
 RMS .    RESISTIVITY OF MUD SAMPLE:  0.077
 RUN .            RUN NUMBER 1:  2
 PROV.                   STATE:  POLSKA
 TCS .    TIME CIRCULATION STOPPED:   
 TDD .          DRILLERS DEPTH:  3675.00
 TDL .           LOGGERS DEPTH:  -
 TLI .     TOP LOGGED INTERVAL:  3490.0
 TITLE1.    HEADER TITLE LINE 1:  PR.AKUST.,PR.ELEKTR.
 TITLE2.    HEADER TITLE LINE 2:  (3516)3532.0-3669.0m
 TITLE3.    HEADER TITLE LINE 3:  TVD:3030.97-? m
 TITLE4.    HEADER TITLE LINE 4:  skala 1:500
 WITN.          WITNESS 1 NAME:  A.KULIG
 WELL.               WELL NAME:  SLONSK-1K
 XTP .    MAX. REC TEMP. @ 1 (OPEN HOLE):  N/A
~Parameter Information Block
#MNEM.UNIT       Value        Description
#---------     -----------    ---------------------------
 LUN .                   16107:  LOGGING UNIT NUMBER
~Curve Information Block
#MNEM.UNIT                 API CODE     Curve Description
#---------               -----------    ---------------------------
 DEPT.M                 00 000 000 000:  
 BS  .MM                00 000 000 000:                                         
 CALM.MM                00 000 000 000:                                         
 DT  .US/F              00 000 000 000:  DELTA TIME COMPRESSIVE                 
 GR  .GAPI              00 000 000 000:  NATURAL GAMMA                          
 LLD .OHMM              00 000 000 000:                                         
 LLS .OHMM              00 000 000 000:                                         
 MSFL.OHMM              00 000 000 000:                                         
 TT1 .US                00 000 000 000:                                         
 TT2 .US                00 000 000 000:                                         
 TVD .M                 00 000 000 000:                                         
~A  DEPT        BS         CALM       DT         GR         LLD        LLS        MSFL       TT1        TT2        TVD    
 3532.0000   149.0000   166.1160    56.3063    15.4238     1.0400    -0.1200     1.5900   731.4000   789.4000  3030.9663 
 3532.1000   149.0000   166.1160    57.2797    16.5388     2.1500    -0.0100     1.5100   732.8000   791.6000  3031.0110 
 3532.2000   149.0000   166.1160    56.8203    17.4374    11.1600     0.1700     0.5500   734.5000   793.3000  3031.0554 
 3532.3000   149.0000   165.3540    54.5609    17.7470   290.9000     1.1400     1.5200   736.6000   794.6000  3031.1001 
 3532.4000   149.0000   162.5600    52.8000    17.7603   288.6200     7.2800     2.1600   738.4000   798.3000  3031.1448 
 3532.5000   149.0000   160.5280    53.7844    17.5955   281.0900     4.3200     0.8000   742.3000   800.0000  3031.1895 
 3532.6000   149.0000   160.0200    56.7703    17.4208   305.7400     2.8800     1.8200   743.8000   801.4000  3031.2339 
 3532.7000   149.0000   159.5120    58.9125    17.5007   322.5100     2.2800     0.8100   745.5000   802.3000  3031.2786 
 3532.8000   149.0000   155.7020    58.8609    17.5772   309.4900     1.9600     0.6100   746.0000   804.8000  3031.3232 
 3532.9000   149.0000   150.6220    57.9516    17.9833    10.4300     1.7900     0.5900   747.9000   805.4000  3031.3677 
 3533.0000   149.0000   149.8600    57.9844    18.1264     5.6400     1.7500     0.9300   750.0000   806.1000  3031.4124 
 3533.1000   149.0000   149.8600    59.5172    18.2662     4.2000     1.5500     0.9900   753.8000   810.4000  3031.4570 
 3533.2000   149.0000   149.8600    62.1031    18.6656     3.3100     1.3800     0.5800   757.3000   811.9000  3031.5017 
 3533.3000   149.0000   149.8600    64.0656    18.6673     3.0500     1.2200     0.6400   757.7000   814.5000  3031.5464 
 3533.4000   149.0000   149.8600    64.5437    19.1311     2.8500     1.1500     0.4600   759.6000   818.4000  3031.5911 
 3533.5000   149.0000   149.8600    65.2953    19.8206     2.6500     1.0500     0.3800   763.0000   820.0000  3031.6357 
 3533.6000   149.0000   149.8600    66.5875    20.1653     2.6400     1.0000     0.3400   768.2000   820.6000  3031.6802 
 3533.7000   149.0000   149.8600    67.1031    20.5992     2.7100     0.9900     0.6900   773.6000   829.5000  3031.7249 
 3533.8000   149.0000   149.8600    66.5969    20.9275     2.8900     1.0200     0.6600   773.3000   837.1000  3031.7695 
 3533.9000   149.0000   149.8600    65.4953    21.3138     3.1300     1.1000     0.4500   773.5000   837.2000  3031.8142 
 3534.0000   149.0000   149.8600    64.4547    22.1176     3.5800     1.2300     0.4300   778.4000   837.6000  3031.8589 
 3534.1000   149.0000   149.8600    63.7266    23.0189     3.7000     1.3500     0.5200   781.5000   841.3000  3031.9036 
 3534.2000   149.0000   149.8600    63.1484    23.5536     4.0700     1.4400     0.6700   784.3000   844.8000  3031.9482 
 3534.3000   149.0000   149.8600    62.5281    23.4480     4.5000     1.5300     0.9200   788.9000   848.1000  3031.9927 
 3534.4000   149.0000   149.6060    61.6891    22.7629     4.5800     1.6300     0.8200   776.7000   856.2000  3032.0374 
 3534.5000   149.0000   149.6060    60.7781    22.1000     4.9900     1.6900     0.8300   778.4000   848.9000  3032.0820 
 3534.6000   149.0000   149.8600    60.2953    21.7073     4.9100     1.6800     0.6900   779.0000   843.8000  3032.1267 
 3534.7000   149.0000   149.8600    60.4031    21.4556     5.0400     1.6600     0.8200   779.7000   845.6000  3032.1714 
 3534.8000   149.0000   149.8600    60.7766    21.6250     5.0900     1.6000     0.9700   778.9000   845.3000  3032.2158 
 3534.9000   149.0000   149.8600    61.0781    21.5725     5.3100     1.5600     0.9900   778.7000   843.7000  3032.2605 
 3535.0000   149.0000   149.8600    61.2781    21.8810     5.1000     1.5600     0.9500   774.6000   841.9000  3032.3052 
 3535.1000   149.0000   149.8600    61.4516    22.4647     4.8900     1.4800     0.9300   772.3000   838.0000  3032.3499 
 3535.2000   149.0000   149.8600    61.6391    22.6607     4.3700     1.4200     1.5100   771.1000   835.9000  3032.3945 
 3535.3000   149.0000   149.8600    61.9625    22.7731     4.1600     1.3300     1.4800   769.6000   830.5000  3032.4392 
 3535.4000   149.0000   149.8600    62.3234    22.0464     3.8800     1.3000     0.9300   768.0000   829.0000  3032.4839 
 3535.5000   149.0000   149.8600    62.6953    21.2651     3.5500     1.2600     0.7700   766.3000   828.5000  3032.5286 
 3535.6000   149.0000   149.8600    63.3875    21.0587     3.3100     1.2100     0.7100   764.9000   829.6000  3032.5732 
 3535.7000   149.0000   149.8600    64.3984    21.2034     3.1200     1.1300     0.5700   766.5000   829.8000  3032.6179 
 3535.8000   149.0000   149.8600    65.3719    22.0633     2.9100     1.0300     0.5100   768.0000   829.4000  3032.6626 
 3535.9000   149.0000   149.8600    66.1797    22.9755     2.8900     1.0200     0.5900   769.2000   828.0000  3032.7073 
 3536.0000   149.0000   149.8600    66.9109    23.0123     2.9700     0.9600     0.6200   767.4000   825.4000  3032.7520 
 3536.1000   149.0000   149.8600    67.6578    22.6758     3.6200     0.9000     0.2500   765.3000   824.6000  3032.7966 
 3536.2000   149.0000   149.8600    68.2781    21.9214     6.0000     0.8800     0.4000   763.6000   822.2000  3032.8413 
 3536.3000   149.0000   149.8600    68.3375    20.9841     8.1100     0.8900     0.3900   761.2000   815.4000  3032.8860 
 3536.4000   149.0000   149.8600    67.6156    20.9489     8.9000     0.8800     0.3200   758.0000   813.7000  3032.9307 
 3536.5000   149.0000   149.8600    66.6781    21.1483     9.2300     0.9000     0.3400   754.1000   813.1000  3032.9753 
 3536.6000   149.0000   149.8600    65.9812    21.2425     9.6300     0.9800     0.6200   751.8000   812.7000  3033.0200 
 3536.7000   149.0000   149.8600    65.1047    21.3408    10.0200     1.0700     0.2400   749.5000   812.4000  3033.0647 
 3536.8000   149.0000   149.8600    63.7547    21.4274    10.2100     1.1400     0.5900   749.1000   811.6000  3033.1094 
 3536.9000   149.0000   149.8600    62.3219    21.3491    10.3400     1.1800     1.1200   748.2000   812.0000  3033.1541 
 3537.0000   149.0000   149.8600    61.4406    21.5863    10.9000     1.2200     0.7600   746.1000   814.5000  3033.1987 
 3537.1000   149.0000   149.8600    60.9813    22.0390    11.8700     1.4100     2.6900   746.8000   814.3000  3033.2434 
 3537.2000   149.0000   149.8600    60.2313    21.6129    11.4500     1.4700     2.5900   747.4000   813.8000  3033.2883 
 3537.3000   149.0000   149.8600    59.5312    21.4939    10.3100     1.4200     2.0200   746.7000   813.9000  3033.3330 
 3537.4000   149.0000   149.8600    59.9562    21.4407     9.6500     1.4000     0.5800   746.0000   813.7000  3033.3777 
 3537.5000   149.0000   149.8600    61.4156    21.2709     8.8200     1.3400     0.5800   744.8000   812.6000  3033.4226 
 3537.6000   149.0000   149.8600    62.7797    21.8850     8.2500     1.3200     1.1700   742.8000   811.6000  3033.4673 
 3537.7000   149.0000   149.8600    62.6844    22.6239     7.7300     1.3300     2.1600   743.2000   811.6000  3033.5120 
 3537.8000   149.0000   149.8600    60.9016    23.5351     7.2100     1.3100     0.9900   744.2000   810.3000  3033.5566 
 3537.9000   149.0000   149.8600    58.9344    24.9929     7.4800     1.4200     6.4900   744.2000   812.0000  3033.6016 
 3538.0000   149.0000   149.8600    57.7969    26.8501     8.2900     1.6400     0.9100   744.7000   813.0000  3033.6462 
 3538.1000   149.0000   149.8600    57.2141    27.9685     9.8600     1.9900     0.9800   745.9000   812.9000  3033.6912 
 3538.2000   149.0000   149.8600    56.5609    28.3679    11.3000     2.4000     5.9700   750.0000   815.1000  3033.7358 
 3538.3000   149.0000   149.8600    55.9016    27.9685    11.3300     2.6300     5.8100   751.9000   817.2000  3033.7808 
 3538.4000   149.0000   149.8600    55.4078    26.9450    10.0200     2.4000     1.5600   753.5000   819.2000  3033.8254 
 3538.5000   149.0000   149.8600    54.7391    26.7753     9.3800     2.3000     2.2800   757.3000   823.7000  3033.8704 
