~Version Information
 VERS.                 1.20:   CWLS log ASCII Standard -VERSION 1.20
 WRAP.                   NO:   One line per depth step
~Well Information Block
#MNEM.UNIT       Data Type    Information
#---------     -----------    ---------------------------
 STRT.M              3532.0000:
 STOP.M              3669.0000:
 STEP.M                 0.1000:
 NULL.               -999.2500:
 APD .    ABOVE PERMANENT DATUM:  53.0
 UWI .     API WELLHOLE NUMBER:  2016633897DD
 BHT .    BOTTOMHOLE TEMPERATURE:  N/A
 BLI .    BOTTOM LOGGED INTERVAL:  3669.0
 BS  .                BIT SIZE:  149.0
 CBD .    CASING BOTTOM DRILLER:  7"
 CBL .    CASING BOTTOM LOGGER:  3532.0
 COMP.            COMPANY NAME:  PNiG "PILA" Sp. Z O.O.
 COUN.                  COUNTY:  MONOKLINA PRZEDSUDECKA
 CS  .         CASING DIAMETER:  3532.0
 DATE.            LOGGING DATE:  14.06.2008
 DFD .    DRILLING FLUID DENSITY:  1.96
 DFL .     DRILLING FLUID LOSS:  2.4
 DFPH.       DRILLING FLUID PH:  9.2
 DFT .     DRILLING FLUID TYPE:  SOLNO-BARYTOWA
 DFV .    DRILLING FLUID VISCOSITY:  N/A
 DMF .       DRILLING MEASURED:  P.TER.
 EGL .    ELEVATION OF GROUND LEVEL:  53.0
 EKB .    ELEVATION OF KELLY BUSHING:  6.0
 ENG2.         ENGINEER 2 NAME:  M.GOLONKA
 ENGI.         ENGINEER 1 NAME:  P.DRAG
 EPD .    ELEVATATION OF PERMANENT DATUM:   
 FL1 .    FIELD LOCATION LINE 1:  m. SLONSK
 FL2 .    FIELD LOCATION LINE 2:  woj. LUBUSKIE
 FL3 .    FIELD LOCATION LINE 3:  woj. wielkopolskie
 FLD .              FIELD NAME:  SLONSK
 HDRT.             HEADER TYPE:  OPNHS
 LMF .       LOG MEASURED FROM:  P.TER.
 LUL .    LOGGING UNIT LOCATION:  TORUN
 MCSS.    MUD CAKE SAMPLE SOURCE:  POMIA
 MCST.    MUDCAKE SAMPLE TEMPERATURE:  66.0
 MFSS.    MUD FILTRATE SAMPLE SOURCE:  POMIA
 MFST.    MUD FILTRATE SAMPLE TEMPERATURE:  65.0
 MRT .    MAXIMUM RECORDED TEMPERATURE:  N/A
 MSS .    SOURCE OF MUD SAMPLE:  Z OBIEGU
 MST .    MUD SAMPLE TEMPERATURE:  68.0
 OS1 .    OTHER SERVICES LINE 1:  DSNII,SDLT
 OS2 .    OTHER SERVICES LINE 2:  GRTFA, FWST,
 OS3 .    OTHER SERVICES LINE 3:  WOT
 OS4 .    OTHER SERVICES LINE 4:   
 OS5 .    OTHER SERVICES LINE 5:   
 PDAT.         PERMANENT DATUM:  POZ. MORZA
 R1  .          REMARKS LINE 1:   POMIARY DOWIAZANO DO GLEBOKOSCI WIERTNICZEJ  BUTA RUR 7" .
 R10 .         REMARKS LINE 10:   
 R2  .          REMARKS LINE 2:   SCT: 12.06.2008  GODZ. 01:00  OBIEG 2X 120 MIN.
 R3  .          REMARKS LINE 3:   POMIARU TEMPERATURY NIE WYKONYWANO.
 RMB .    RESISTIVITY OF MUD - BHT:  N/A
 RMCS.    RESISTIVITY OF MUDCAKE SAMPLE:  0.188
 RMFS.    RESISTIVITY OF MUD FILTRATE SAMPLE:  0.052
 RMS .    RESISTIVITY OF MUD SAMPLE:  0.077
 RUN .            RUN NUMBER 1:  2
 PROV.                   STATE:  POLSKA
 TCS .    TIME CIRCULATION STOPPED:   
 TDD .          DRILLERS DEPTH:  3675.00
 TDL .           LOGGERS DEPTH:  -
 TLI .     TOP LOGGED INTERVAL:  3490.0
 TITLE1.    HEADER TITLE LINE 1:  PR.AKUST.,PR.ELEKTR.
 TITLE2.    HEADER TITLE LINE 2:  (3516)3532.0-3669.0m
 TITLE3.    HEADER TITLE LINE 3:  TVD:3030.97-? m
 TITLE4.    HEADER TITLE LINE 4:  skala 1:500
 WITN.          WITNESS 1 NAME:  A.KULIG
 WELL.               WELL NAME:  SLONSK-1K
 XTP .    MAX. REC TEMP. @ 1 (OPEN HOLE):  N/A
~Parameter Information Block
#MNEM.UNIT       Value        Description
#---------     -----------    ---------------------------
 LUN .                   16107:  LOGGING UNIT NUMBER
~Curve Information Block
#MNEM.UNIT                 API CODE     Curve Description
#---------               -----------    ---------------------------
 DEPT.M                 00 000 000 000:  
 BS  .MM                00 000 000 000:                                         
 CALM.MM                00 000 000 000:                                         
 DT  .US/F              00 000 000 000:  DELTA TIME COMPRESSIVE                 
 GR  .GAPI              00 000 000 000:  NATURAL GAMMA                          
 LLD .OHMM              00 000 000 000:                                         
 LLS .OHMM              00 000 000 000:                                         
 MSFL.OHMM              00 000 000 000:                                         
 TT1 .US                00 000 000 000:                                         
 TT2 .US                00 000 000 000:                                         
 TVD .M                 00 000 000 000:                                         
~A  DEPT        BS         CALM       DT         GR         LLD        LLS        MSFL       TT1        TT2        TVD    
# ...
 3617.8000   149.0000   151.8920    54.2562    15.8103     5.3100     4.7100     3.6400   703.7000   760.0000  3069.3098 
 3617.9000   149.0000   151.8920    54.2594    15.3154     5.5000     4.8000     2.4300   708.3000   765.6000  3069.3560 
 3618.0000   149.0000   151.8920    54.4891    14.9003     5.6100     4.8700     9.0900   710.7000   768.1000  3069.4021 
 3618.1000   149.0000   151.8920    54.7641    15.0656     5.0700     4.4200     5.9600   712.4000   770.2000  3069.4485 
 3618.2000   149.0000   151.8920    54.9062    15.2875     4.4900     3.8800     4.9700   714.7000   773.1000  3069.4951 
 3618.3000   149.0000   151.8920    54.9969    16.0464     3.9600     3.4200     1.7400   717.7000   774.4000  3069.5415 
 3618.4000   149.0000   151.8920    55.4703    17.5073     3.5300     3.0500     0.7900   719.0000   775.8000  3069.5879 
 3618.5000   149.0000   151.8920    56.6406    18.3331     3.2300     2.7900     0.8000   719.3000   777.2000  3069.6345 
 3618.6000   149.0000   151.8920    58.2484    19.1211     3.0400     2.6500     3.9800   721.3000   780.0000  3069.6809 
 3618.7000   149.0000   151.8920    59.7453    19.2591     2.9500     2.5500     1.4900   722.4000   782.0000  3069.7273 
 3618.8000   149.0000   151.8920    60.5578    18.2989     3.0800     2.6400     1.0300   723.9000   783.5000  3069.7737 
 3618.9000   149.0000   151.8920    60.5406    17.5003     3.3100     2.8700     1.1900   728.3000   783.3000  3069.8203 
 3619.0000   149.0000   151.8920    60.1484    16.3510     3.4100     3.0400     1.5300   728.9000   783.9000  3069.8667 
 3619.1000   149.0000   151.8920    59.9391    15.5770     3.4100     3.0900     1.6700   728.9000   784.4000  3069.9133 
 3619.2000   149.0000   151.8920    60.1750    15.3334     3.3700     3.1100     1.5400   729.7000   785.7000  3069.9602 
 3619.3000   149.0000   151.8920    60.7266    15.4248     3.3200     3.0900     1.3900   731.5000   786.1000  3070.0068 
 3619.4000   149.0000   151.8920    61.3922    15.9113     3.2500     3.0300     1.3000   731.6000   786.3000  3070.0535 
 3619.5000   149.0000   151.8920    61.8063    16.0813     3.1500     2.9300     1.2400   731.6000   786.5000  3070.1003 
 3619.6000   149.0000   151.8920    61.9188    15.9372     3.0800     2.8600     1.1600   732.8000   789.2000  3070.1470 
 3619.7000   149.0000   151.8920    62.2922    15.4360     3.0300     2.8200     1.1400   734.3000   790.6000  3070.1936 
 3619.8000   149.0000   151.8920    62.8266    15.0834     3.0300     2.8300     1.1500   735.7000   791.0000  3070.2402 
 3619.9000   149.0000   151.8920    62.7625    14.8088     3.1200     2.9300     1.2700   734.3000   794.0000  3070.2871 
 3620.0000   149.0000   151.8920    61.9422    15.0808     3.3400     3.1400     1.5500   734.0000   794.5000  3070.3337 
 3620.1000   149.0000   151.8920    60.8406    15.5886     3.6400     3.4200     1.8900   731.9000   792.4000  3070.3806 
 3620.2000   149.0000   151.8920    59.9422    16.0181     3.9500     3.7200     2.0900   732.2000   791.7000  3070.4275 
 3620.3000   149.0000   151.8920    59.4625    16.5260     4.2000     3.9700     4.6800   731.4000   789.9000  3070.4744 
 3620.4000   149.0000   151.8920    59.4359    16.4144     4.3600     4.1300     4.2800   730.6000   789.7000  3070.5212 
 3620.5000   149.0000   151.8920    59.8406    16.0948     4.4700     4.2600     2.7500   730.7000   790.3000  3070.5681 
 3620.6000   149.0000   151.8920    60.2734    15.5820     4.4700     4.3400     2.1900   730.0000   790.3000  3070.6147 
 3620.7000   149.0000   151.8920    60.2656    14.9887     4.2700     4.2000     1.7200   729.5000   787.1000  3070.6616 
 3620.8000   149.0000   151.8920    59.8359    15.1867     4.2400     4.1900     1.6400   727.9000   784.3000  3070.7085 
 3620.9000   149.0000   151.8920    59.3266    15.4392     4.4900     4.4100     1.7200   722.6000   779.0000  3070.7554 
 3621.0000   149.0000   151.8920    58.8578    15.5330     4.8700     4.7600     2.2500   720.1000   776.8000  3070.8022 
 3621.1000   149.0000   151.8920    58.1828    15.7080     5.3600     5.2300    37.9000   717.0000   774.9000  3070.8494 
 3621.2000   149.0000   151.8920    57.2234    15.1259     6.0300     5.8600    15.1400   710.8000   770.4000  3070.8962 
 3621.3000   149.0000   151.8920    56.3641    14.7999     7.0000     6.8100    12.2400   710.1000   767.1000  3070.9434 
 3621.4000   149.0000   151.8920    56.1188    14.6266     8.3000     8.1500     7.4700   708.5000   764.8000  3070.9902 
 3621.5000   149.0000   151.8920    56.3734    14.6817     9.8700     9.9300     7.6100   705.5000   762.3000  3071.0374 
 3621.6000   149.0000   151.8920    56.7516    15.2937    10.4500    10.6500     7.3200   704.7000   760.7000  3071.0842 
 3621.7000   149.0000   151.8920    57.1000    15.5086    10.7900    11.0600    11.1600   703.4000   759.4000  3071.1313 
 3621.8000   149.0000   151.8920    57.3094    15.8884    10.8300    11.2100    12.7600   702.0000   758.0000  3071.1782 
 3621.9000   149.0000   151.8920    57.5375    15.8201    10.6400    11.0700    10.5200   699.2000   755.2000  3071.2253 
 3622.0000   149.0000   151.8920    57.8734    15.5039    10.4700    10.9700     6.4200   697.9000   754.0000  3071.2722 
 3622.1000   149.0000   151.8920    58.1813    15.6956    10.3200    10.8600     8.2100   695.8000   752.5000  3071.3193 
 3622.2000   149.0000   151.8920    58.4703    16.3055    10.2400    10.9200     3.3000   691.5000   749.6000  3071.3665 
 3622.3000   149.0000   151.8920    58.7703    17.5007    10.6200    11.3600     2.8300   689.4000   748.0000  3071.4138 
 3622.4000   149.0000   151.8920    58.9125    18.7686    11.0600    12.0300     5.8500   689.6000   747.3000  3071.4609 
 3622.5000   149.0000   151.8920    58.4797    19.4031    11.3000    12.4800     6.3100   688.4000   745.8000  3071.5081 
 3622.6000   149.0000   151.8920    57.2641    19.5067    11.7100    13.0000     5.1900   688.8000   744.5000  3071.5552 
 3622.7000   149.0000   151.8920    55.7781    19.2534    12.7100    14.1400    12.5700   689.6000   744.7000  3071.6023 
 3622.8000   149.0000   151.8920    54.6609    18.8483    14.0600    15.8000     7.1200   690.0000   745.3000  3071.6497 
 3622.9000   149.0000   151.8920    54.0391    19.0787    15.2600    17.4100    16.0700   690.3000   745.9000  3071.6968 
 3623.0000   149.0000   151.8920    53.7344    19.0627    16.3900    18.7900    30.7600   690.0000   744.1000  3071.7439 
 3623.1000   149.0000   151.8920    53.6813    18.5232    17.9800    20.5900    11.0000   690.6000   745.4000  3071.7913 
 3623.2000   149.0000   151.8920    53.8828    18.0538    21.2400    24.3400    15.7000   688.6000   745.9000  3071.8386 
 3623.3000   149.0000   151.8920    54.1203    17.1367    23.5500    26.9900    15.7500   687.6000   745.4000  3071.8860 
 3623.4000   149.0000   151.8920    54.1344    16.6051    25.3800    28.8500    18.5500   686.5000   746.5000  3071.9333 
 3623.5000   149.0000   151.8920    53.8516    17.0117    26.8000    30.3700   740.2200   687.2000   747.1000  3071.9807 
 3623.6000   149.0000   151.8920    53.4203    17.2447    28.2000    31.6000    29.1300   687.7000   746.2000  3072.0281 
 3623.7000   149.0000   151.8920    53.1594    17.5469    29.5900    32.9700    24.3600   688.0000   745.5000  3072.0754 
 3623.8000   149.0000   151.8920    53.1969    17.5933    28.3900    31.2700    41.4400   688.0000   744.8000  3072.1228 
 3623.9000   149.0000   151.8920    53.3875    17.0431    28.5400    31.4900    93.8500   686.6000   744.0000  3072.1702 
 3624.0000   149.0000   151.8920    53.6312    16.9831    28.6800    31.2400    69.2900   685.2000   743.5000  3072.2175 
 3624.1000   149.0000   151.8920    53.9859    17.1483    28.5000    30.8000    26.7100   685.8000   744.2000  3072.2651 
 3624.2000   149.0000   151.8920    54.3438    17.8588    30.3800    32.1800    30.9900   686.9000   744.6000  3072.3125 
 3624.3000   149.0000   151.8920    54.4078    18.9459    34.3700    35.9300    42.8300   689.7000   744.8000  3072.3601 
