~Version Information
 VERS.                 1.20:   CWLS log ASCII Standard -VERSION 1.20
 WRAP.                   NO:   One line per depth step
~Well Information Block
#MNEM.UNIT       Data Type    Information
#---------     -----------    ---------------------------
 STRT.M              3532.0000:
 STOP.M              3669.0000:
 STEP.M                 0.1000:
 NULL.               -999.2500:
 APD .    ABOVE PERMANENT DATUM:  53.0
 UWI .     API WELLHOLE NUMBER:  2016633897DD
 BHT .    BOTTOMHOLE TEMPERATURE:  N/A
 BLI .    BOTTOM LOGGED INTERVAL:  3669.0
 BS  .                BIT SIZE:  149.0
 CBD .    CASING BOTTOM DRILLER:  7"
 CBL .    CASING BOTTOM LOGGER:  3532.0
 COMP.            COMPANY NAME:  PNiG "PILA" Sp. Z O.O.
 COUN.                  COUNTY:  MONOKLINA PRZEDSUDECKA
 CS  .         CASING DIAMETER:  3532.0
 DATE.            LOGGING DATE:  14.06.2008
 DFD .    DRILLING FLUID DENSITY:  1.96
 DFL .     DRILLING FLUID LOSS:  2.4
 DFPH.       DRILLING FLUID PH:  9.2
 DFT .     DRILLING FLUID TYPE:  SOLNO-BARYTOWA
 DFV .    DRILLING FLUID VISCOSITY:  N/A
 DMF .       DRILLING MEASURED:  P.TER.
 EGL .    ELEVATION OF GROUND LEVEL:  53.0
 EKB .    ELEVATION OF KELLY BUSHING:  6.0
 ENG2.         ENGINEER 2 NAME:  M.GOLONKA
 ENGI.         ENGINEER 1 NAME:  P.DRAG
 EPD .    ELEVATATION OF PERMANENT DATUM:   
 FL1 .    FIELD LOCATION LINE 1:  m. SLONSK
 FL2 .    FIELD LOCATION LINE 2:  woj. LUBUSKIE
 FL3 .    FIELD LOCATION LINE 3:  woj. wielkopolskie
 FLD .              FIELD NAME:  SLONSK
 HDRT.             HEADER TYPE:  OPNHS
 LMF .       LOG MEASURED FROM:  P.TER.
 LUL .    LOGGING UNIT LOCATION:  TORUN
 MCSS.    MUD CAKE SAMPLE SOURCE:  POMIA
 MCST.    MUDCAKE SAMPLE TEMPERATURE:  66.0
 MFSS.    MUD FILTRATE SAMPLE SOURCE:  POMIA
 MFST.    MUD FILTRATE SAMPLE TEMPERATURE:  65.0
 MRT .    MAXIMUM RECORDED TEMPERATURE:  N/A
 MSS .    SOURCE OF MUD SAMPLE:  Z OBIEGU
 MST .    MUD SAMPLE TEMPERATURE:  68.0
 OS1 .    OTHER SERVICES LINE 1:  DSNII,SDLT
 OS2 .    OTHER SERVICES LINE 2:  GRTFA, FWST,
 OS3 .    OTHER SERVICES LINE 3:  WOT
 OS4 .    OTHER SERVICES LINE 4:   
 OS5 .    OTHER SERVICES LINE 5:   
 PDAT.         PERMANENT DATUM:  POZ. MORZA
 R1  .          REMARKS LINE 1:   POMIARY DOWIAZANO DO GLEBOKOSCI WIERTNICZEJ  BUTA RUR 7" .
 R10 .         REMARKS LINE 10:   
 R2  .          REMARKS LINE 2:   SCT: 12.06.2008  GODZ. 01:00  OBIEG 2X 120 MIN.
 R3  .          REMARKS LINE 3:   POMIARU TEMPERATURY NIE WYKONYWANO.
 RMB .    RESISTIVITY OF MUD - BHT:  N/A
 RMCS.    RESISTIVITY OF MUDCAKE SAMPLE:  0.188
 RMFS.    RESISTIVITY OF MUD FILTRATE SAMPLE:  0.052
 RMS .    RESISTIVITY OF MUD SAMPLE:  0.077
 RUN .            RUN NUMBER 1:  2
 PROV.                   STATE:  POLSKA
 TCS .    TIME CIRCULATION STOPPED:   
 TDD .          DRILLERS DEPTH:  3675.00
 TDL .           LOGGERS DEPTH:  -
 TLI .     TOP LOGGED INTERVAL:  3490.0
 TITLE1.    HEADER TITLE LINE 1:  PR.AKUST.,PR.ELEKTR.
 TITLE2.    HEADER TITLE LINE 2:  (3516)3532.0-3669.0m
 TITLE3.    HEADER TITLE LINE 3:  TVD:3030.97-? m
 TITLE4.    HEADER TITLE LINE 4:  skala 1:500
 WITN.          WITNESS 1 NAME:  A.KULIG
 WELL.               WELL NAME:  SLONSK-1K
 XTP .    MAX. REC TEMP. @ 1 (OPEN HOLE):  N/A
~Parameter Information Block
#MNEM.UNIT       Value        Description
#---------     -----------    ---------------------------
 LUN .                   16107:  LOGGING UNIT NUMBER
~Curve Information Block
#MNEM.UNIT                 API CODE     Curve Description
#---------               -----------    ---------------------------
 DEPT.M                 00 000 000 000:  
 BS  .MM                00 000 000 000:                                         
 CALM.MM                00 000 000 000:                                         
 DT  .US/F              00 000 000 000:  DELTA TIME COMPRESSIVE                 
 GR  .GAPI              00 000 000 000:  NATURAL GAMMA                          
 LLD .OHMM              00 000 000 000:                                         
 LLS .OHMM              00 000 000 000:                                         
 MSFL.OHMM              00 000 000 000:                                         
 TT1 .US                00 000 000 000:                                         
 TT2 .US                00 000 000 000:                                         
 TVD .M                 00 000 000 000:                                         
~A  DEPT        BS         CALM       DT         GR         LLD        LLS        MSFL       TT1        TT2        TVD    
# ...
 3578.2000   149.0000   149.6060    62.4641    22.4467     3.0900     1.5500     5.3500   750.3000   815.6000  3051.6145 
 3578.3000   149.0000   149.8600    61.7344    21.8076     2.9100     1.4700     1.9200   753.0000   815.9000  3051.6587 
 3578.4000   149.0000   149.8600    60.0687    20.5545     2.7500     1.4100     5.9300   751.5000   818.1000  3051.7029 
 3578.5000   149.0000   149.8600    58.7313    19.3296     2.8100     1.4500     0.9600   751.2000   814.2000  3051.7473 
 3578.6000   149.0000   149.8600    58.5422    19.1582     2.8200     1.5100     1.3000   750.2000   813.3000  3051.7915 
 3578.7000   149.0000   149.8600    59.0781    19.5476     2.5500     1.4200     1.0300   748.4000   813.2000  3051.8357 
 3578.8000   149.0000   149.8600    59.4656    20.2882     2.4100     1.3200     0.8500   745.6000   812.3000  3051.8799 
 3578.9000   149.0000   149.8600    58.9656    20.8790     2.5200     1.3300     1.8100   739.1000   808.3000  3051.9243 
 3579.0000   149.0000   149.8600    57.4828    20.9855     2.7900     1.4300     2.8400   738.1000   803.1000  3051.9685 
 3579.1000   149.0000   149.8600    55.7984    20.7775     2.9500     1.5300     6.8600   736.3000   801.0000  3052.0127 
 3579.2000   149.0000   149.8600    54.9328    20.3198     3.1300     1.6400     0.9700   734.9000   797.3000  3052.0569 
 3579.3000   149.0000   149.8600    55.3500    20.1035     3.1700     1.7100     0.7400   735.7000   795.8000  3052.1008 
 3579.4000   149.0000   149.8600    56.6188    20.0469     3.1100     1.6800     0.7200   735.2000   795.5000  3052.1450 
 3579.5000   149.0000   149.8600    57.9875    20.2000     2.8900     1.5800     5.1500   738.1000   795.1000  3052.1892 
 3579.6000   149.0000   149.8600    59.0141    20.7076     2.7100     1.4600     1.4800   734.2000   797.4000  3052.2334 
 3579.7000   149.0000   149.6060    59.5594    20.7375     2.6100     1.4000     2.5500   733.2000   800.7000  3052.2776 
 3579.8000   149.0000   149.8600    59.7594    21.0604     2.3100     1.2700     2.9300   734.5000   795.0000  3052.3215 
 3579.9000   149.0000   149.8600    60.2203    22.1005     1.9700     1.0800     4.3700   735.6000   795.0000  3052.3657 
 3580.0000   149.0000   149.8600    61.4016    23.1157     1.7900     0.9400     0.6300   734.4000   796.9000  3052.4099 
 3580.1000   149.0000   149.8600    62.6672    24.9280     1.7800     0.9300     0.6300   734.8000   797.2000  3052.4541 
 3580.2000   149.0000   149.8600    63.3281    25.8084     1.7700     0.9500     0.9500   736.1000   796.7000  3052.4980 
 3580.3000   149.0000   149.8600    63.4469    25.4406     1.6500     0.9000     0.7900   739.2000   797.2000  3052.5422 
 3580.4000   149.0000   149.8600    63.2031    25.0944     1.6400     0.8600     1.0300   740.1000   798.1000  3052.5864 
 3580.5000   149.0000   149.8600    62.8453    24.1042     1.6900     0.8800     0.6800   741.1000   799.0000  3052.6306 
 3580.6000   149.0000   149.8600    62.5812    23.6083     1.7200     0.9100     0.6500   743.2000   800.7000  3052.6746 
 3580.7000   149.0000   149.8600    62.3547    23.1057     1.7500     0.9400     1.0000   744.0000   802.2000  3052.7188 
 3580.8000   149.0000   149.8600    62.0656    22.0489     1.7500     0.9700     0.4300   744.1000   803.4000  3052.7629 
 3580.9000   149.0000   149.8600    62.0141    20.8108     1.8300     1.0000     0.6100   743.8000   803.6000  3052.8069 
 3581.0000   149.0000   149.6060    62.7594    19.5327     1.9300     1.0800     0.7600   744.3000   802.4000  3052.8511 
 3581.1000   149.0000   149.8600    63.5641    19.0567     1.9200     1.0700     0.7500   745.2000   801.9000  3052.8953 
 3581.2000   149.0000   149.8600    63.0219    18.8528     1.8700     1.0300     1.1200   745.2000   801.7000  3052.9392 
 3581.3000   149.0000   149.8600    60.5922    19.0509     1.8200     0.9800     1.0100   744.3000   802.0000  3052.9834 
 3581.4000   149.0000   149.8600    57.3781    19.7981     1.8000     0.9800     0.8100   743.2000   802.4000  3053.0273 
 3581.5000   149.0000   149.8600    55.7969    20.3140     1.7300     0.9300     0.8000   742.3000   802.2000  3053.0715 
 3581.6000   149.0000   149.8600    55.7469    20.7517     1.6300     0.9100     0.6000   741.2000   801.0000  3053.1157 
 3581.7000   149.0000   149.8600    55.5453    20.9231     1.5100     0.8000     0.4900   738.3000   800.0000  3053.1597 
 3581.8000   149.0000   149.8600    55.2266    20.6402     1.5300     0.8000     0.4200   737.3000   799.2000  3053.2039 
 3581.9000   149.0000   149.8600    55.2531    20.2208     1.5600     0.8300     0.5700   736.7000   799.5000  3053.2478 
 3582.0000   149.0000   149.8600    55.4359    20.1584     1.5300     0.8400     2.8000   736.7000   800.2000  3053.2920 
 3582.1000   149.0000   149.8600    55.3563    20.3498     1.5200     0.8400     1.1900   738.0000   801.0000  3053.3362 
 3582.2000   149.0000   149.8600    54.9453    20.3473     1.5600     0.8800     0.5900   739.6000   801.0000  3053.3801 
 3582.3000   149.0000   149.8600    54.5078    20.0760     1.6800     0.9400     0.4600   739.0000   795.7000  3053.4243 
 3582.4000   149.0000   149.8600    54.3016    19.7798     1.9000     1.0900     1.3900   730.9000   791.9000  3053.4683 
 3582.5000   149.0000   149.8600    54.2766    19.5152     1.9800     1.1700     0.5700   726.1000   790.0000  3053.5125 
 3582.6000   149.0000   149.8600    54.2406    19.4424     2.0600     1.2200     1.1200   719.9000   774.9000  3053.5564 
 3582.7000   149.0000   149.8600    54.1344    19.8754     2.2800     1.3700     1.3800   717.1000   772.3000  3053.6006 
 3582.8000   149.0000   149.8600    53.9469    20.1069     2.5000     1.5600     1.0300   713.1000   769.7000  3053.6445 
 3582.9000   149.0000   149.8600    53.6484    20.3069     2.6600     1.7100     0.8700   709.3000   767.0000  3053.6887 
 3583.0000   149.0000   149.8600    53.2672    20.7830     2.6400     1.7600     1.0400   704.7000   759.7000  3053.7327 
 3583.1000   149.0000   149.6060    52.9641    21.1672     2.5700     1.7200     1.2900   702.0000   757.4000  3053.7766 
 3583.2000   149.0000   149.8600    52.9672    21.4681     2.5000     1.6600     1.9400   698.6000   756.1000  3053.8208 
 3583.3000   149.0000   149.8600    53.2500    21.6326     2.3600     1.5900     2.4800   695.5000   754.8000  3053.8647 
 3583.4000   149.0000   149.6060    53.5625    21.7411     2.0500     1.4000     1.4400   692.4000   748.5000  3053.9087 
 3583.5000   149.0000   149.8600    53.7812    21.6412     1.7500     1.1800     0.6900   690.8000   747.0000  3053.9529 
 3583.6000   149.0000   149.8600    54.0969    22.2120     1.5700     1.0700     0.5200   688.1000   747.1000  3053.9968 
 3583.7000   149.0000   149.6060    54.7281    23.2938     1.5000     1.0300     0.4500   686.7000   746.0000  3054.0408 
 3583.8000   149.0000   149.8600    55.5406    24.0343     1.5100     1.0700     0.6000   686.3000   741.9000  3054.0847 
 3583.9000   149.0000   149.8600    56.1578    25.0428     1.6500     1.1800     0.5600   684.1000   739.6000  3054.1289 
 3584.0000   149.0000   149.8600    55.7188    24.9596     1.9900     1.4400     0.5900   682.6000   738.6000  3054.1729 
 3584.1000   149.0000   149.8600    53.7406    24.6289     2.7200     1.9400     1.8600   681.2000   737.1000  3054.2168 
 3584.2000   149.0000   149.8600    51.4844    24.6166     4.1400     3.0300     8.7500   680.1000   734.6000  3054.2607 
 3584.3000   149.0000   149.8600    50.0531    24.2364     6.4200     4.8900    20.8400   677.8000   732.7000  3054.3047 
 3584.4000   149.0000   149.8600    49.2328    24.8631    10.9400     8.3000    14.8200   676.9000   731.4000  3054.3486 
 3584.5000   149.0000   149.8600    48.9062    24.8232    19.8100    15.7300    38.0300   675.4000   729.9000  3054.3926 
 3584.6000   149.0000   149.8600    49.1422    24.4993    29.1000    24.5300    15.8800   673.0000   727.3000  3054.4365 
 3584.7000   149.0000   149.6060    49.6500    24.2305    37.5300    33.5900    24.0400   672.0000   725.8000  3054.4805 
